City_ID,City,Lat,Lng,Max Temp,Humidity,Cloudiness,Wind Speed,Country,Date
0,kone,-21.0595,164.8658,30.53,70,99,3.42,NC,1707091330
1,waitangi,-43.9535,-176.5597,16.35,79,20,5.42,NZ,1707091334
2,labytnangi,66.6572,66.4183,-18.7,98,99,2.41,RU,1707091336
3,palu,-0.8917,119.8707,25.92,92,100,0.38,ID,1707091336
4,aasiaat,68.7098,-52.8699,-31.61,89,30,2.2,GL,1707091337
5,tazovsky,67.4667,78.7,-14.91,96,100,3.36,RU,1707091338
6,alofi,-19.0595,-169.9187,29.94,74,74,7.2,NU,1707091339
7,san juan de miraflores,-12.1629,-76.9635,27.87,68,57,2.45,PE,1707091339
8,alice springs,-23.7,133.8833,36.23,21,20,7.72,AU,1707091051
