City_ID,City,Lat,Lng,Max Temp,Humidity,Cloudiness,Wind Speed,Country,Date
0,college,64.8569,-147.8028,-17.18,78,75,0.0,US,1707250351
1,blackmans bay,-43.0167,147.3167,12.07,82,97,2.05,AU,1707250351
2,bilibino,68.0546,166.4372,-34.95,100,100,0.68,RU,1707250352
3,ribeira grande,38.5167,-28.7,17.1,94,75,13.89,PT,1707250353
4,pathein,16.7833,94.7333,22.58,67,0,4.51,MM,1707250354
5,bethel,41.3712,-73.414,6.05,48,0,4.12,US,1707250354
6,kaspiyskiy,45.3929,47.3707,0.84,68,61,7.5,RU,1707250355
7,dalandzadgad,43.5708,104.425,-15.46,79,4,0.75,MN,1707250356
8,tanguieta,10.6212,1.2665,25.88,16,12,2.67,BJ,1707250356
9,adamstown,-25.066,-130.1015,24.95,80,35,0.72,PN,1707250357
10,la passe,45.5549,-0.8967,10.55,91,100,4.28,FR,1707250358
11,carnarvon,-24.8667,113.6333,29.14,35,5,7.78,AU,1707250358
12,monteagudo,-19.8167,-63.9833,27.47,53,61,1.23,BO,1707250359
13,vorkuta,67.5,64.0,-23.49,97,100,2.02,RU,1707250360
14,totness,5.8833,-56.3167,27.13,84,48,6.98,SR,1707250361
15,vilyuysk,63.7553,121.6247,-29.44,100,100,0.45,RU,1707250361
16,griffith,41.5284,-87.4237,7.19,93,20,2.57,US,1707250362
17,thanh hoa,19.8,105.7667,20.27,95,100,2.33,VN,1707250363
18,puerto ayora,-0.7393,-90.3518,28.98,79,68,4.9,EC,1707250364
19,eregli,37.5133,34.0467,8.52,47,5,3.4,TR,1707250365
20,kindu,-2.95,25.95,21.53,96,100,1.2,CD,1707250365
21,ushuaia,-54.8,-68.3,18.79,36,0,1.54,AR,1707250366
22,kampene,-3.6,26.6667,20.61,99,100,1.29,CD,1707250367
23,hamilton,39.1834,-84.5333,9.77,59,0,2.57,US,1707249906
24,tolanaro,-25.0319,46.9987,22.72,97,100,2.66,MG,1707250368
25,grytviken,-54.2811,-36.5092,10.42,54,3,2.04,GS,1707250369
26,saint-francois,46.4154,3.9054,7.58,88,100,2.57,FR,1707250369
27,port-aux-francais,-49.35,70.2167,6.02,89,100,11.78,TF,1707250370
28,edinburgh of the seven seas,-37.0676,-12.3116,17.09,69,26,3.43,SH,1707250371
29,utrik,11.2278,169.8474,26.29,81,100,7.39,MH,1707250371
30,zaozersk,69.4005,32.4476,-19.44,98,91,4.1,RU,1707250372
31,ciudad insurgentes,25.2625,-111.7753,24.02,38,100,3.7,MX,1707250373
32,porto franco,-6.3383,-47.3992,28.21,75,100,1.61,BR,1707250374
33,kodiak,57.79,-152.4072,-3.27,86,0,0.0,US,1707250374
34,ostersund,63.1792,14.6357,-9.75,92,100,4.12,SE,1707250275
35,puerto san jose,13.9256,-90.8244,30.78,43,0,6.83,GT,1707250376
36,natal,-5.795,-35.2094,30.36,66,40,5.66,BR,1707250377
37,hawaiian paradise park,19.5933,-154.9731,22.8,87,100,2.57,US,1707250378
38,yellowknife,62.456,-114.3525,-17.55,84,100,5.66,CA,1707250379
39,ajdovscina,45.886,13.9095,10.06,94,100,1.48,SI,1707250379
40,lazaro cardenas,17.9583,-102.2,28.88,58,11,3.79,MX,1707250160
41,afaahiti,-17.75,-149.2833,27.93,86,100,8.65,PF,1707250381
42,camana,-16.6228,-72.7111,25.84,77,50,2.82,PE,1707250381
43,ilulissat,69.2167,-51.1,-11.99,48,75,9.77,GL,1707250382
44,stanley,54.868,-1.6985,3.77,74,20,4.63,GB,1707250383
45,antsiranana,-12.2787,49.2917,24.47,95,100,2.26,MG,1707250383
46,puerto natales,-51.7236,-72.4875,18.25,42,100,4.12,CL,1707250384
47,torremolinos,36.6204,-4.4998,16.57,51,0,4.12,ES,1707250385
48,atafu village,-8.5421,-172.5159,28.95,77,100,11.83,TK,1707250385
49,mount isa,-20.7333,139.5,26.87,65,100,3.6,AU,1707250386
50,praia da vitoria,38.7333,-27.0667,18.14,88,75,9.23,PT,1707250387
51,aasiaat,68.7098,-52.8699,-18.12,76,100,5.92,GL,1707250388
52,waitangi,-43.9535,-176.5597,18.79,91,100,1.79,NZ,1707250133
53,nema,57.5067,50.5011,-4.41,97,100,3.08,RU,1707250389
54,merano,46.6682,11.1595,10.88,62,100,1.2,IT,1707250390
55,dongkan,33.9997,119.8308,-0.92,78,82,2.95,CN,1707250390
56,merizo village,13.2658,144.6691,25.85,90,100,7.16,GU,1707250391
57,lihue,21.9789,-159.3672,23.58,73,75,10.8,US,1707250392
58,thompson,55.7435,-97.8558,-17.48,78,5,3.24,CA,1707250187
59,shuangjiang,26.1547,109.7138,-0.95,97,100,1.18,CN,1707250393
60,margaret river,-33.95,115.0667,16.14,66,0,5.34,AU,1707250394
61,port-vila,-17.7338,168.3219,26.84,83,100,3.59,VU,1707250394
62,papatowai,-46.5619,169.4708,12.22,91,93,3.83,NZ,1707250395
63,jiuquan,39.7432,98.5174,-8.04,85,100,0.94,CN,1707250396
64,london,51.5085,-0.1257,13.05,88,100,7.72,GB,1707250099
65,cururupu,-1.8283,-44.8683,28.08,79,70,3.04,BR,1707250397
66,arnsberg,51.3297,8.0071,10.51,81,100,8.45,DE,1707250383
67,tadine,-21.55,167.8833,25.99,82,100,7.65,NC,1707250398
68,roswell,34.0232,-84.3616,18.17,33,0,1.54,US,1707250346
69,palikir - national government center,6.9248,158.1611,26.71,77,77,6.43,FM,1707250400
70,whitehorse,60.7161,-135.0538,-17.21,97,97,2.05,CA,1707250297
71,invercargill,-46.4,168.35,13.34,93,76,4.47,NZ,1707250401
72,piti village,13.4626,144.6933,26.03,84,0,3.09,GU,1707250402
73,port mathurin,-19.6833,63.4167,27.17,69,70,8.32,MU,1707250403
74,tiksi,71.6872,128.8694,-23.78,98,99,2.67,RU,1707250403
75,naze,28.3667,129.4833,14.52,78,100,4.21,JP,1707250404
76,mournies,35.4764,24.0092,14.35,82,20,4.12,GR,1707250405
77,west island,-12.1568,96.8225,26.99,83,40,2.57,CC,1707250405
78,iqaluit,63.7506,-68.5145,-10.17,66,100,8.05,CA,1707250117
79,kanggye,40.9695,126.5852,-13.09,97,78,1.04,KP,1707250159
80,kirakira,-10.4544,161.9205,26.94,84,50,2.99,SB,1707250407
81,al jawf,29.5,38.75,10.97,51,5,0.42,SA,1707250408
82,kruisfontein,-34.0033,24.7314,21.6,85,47,3.9,ZA,1707250409
83,labrador city,52.9463,-66.9114,-6.05,45,20,3.09,CA,1707250409
84,kavaratti,10.5669,72.642,27.89,75,3,3.16,IN,1707250410
85,keflavik,64.0049,-22.5624,-1.76,69,75,9.26,IS,1707250411
86,ebon,4.582,168.6964,27.63,79,100,6.09,MH,1707250412
87,east london,-33.0153,27.9116,24.22,85,100,8.44,ZA,1707250412
88,jiangkou,25.4872,119.1986,10.13,82,100,6.42,CN,1707250413
89,thunder bay,48.4001,-89.3168,2.99,87,75,3.09,CA,1707250370
90,axim,4.8699,-2.2405,26.59,78,54,3.96,GH,1707250414
91,miramichi,47.0043,-65.4654,-0.92,87,100,3.06,CA,1707250415
92,port lavaca,28.615,-96.6261,21.84,54,0,0.0,US,1707250416
93,yarmouth,41.7057,-70.2286,2.27,83,100,9.39,US,1707250416
94,nivala,63.9167,24.9667,-16.59,99,92,1.59,FI,1707250417
95,fale old settlement,-9.3852,-171.2468,29.24,75,100,11.49,TK,1707250418
96,tvoroyri,61.5556,-6.8111,1.14,54,100,8.73,FO,1707250418
97,punta arenas,-53.15,-70.9167,15.06,51,0,9.26,CL,1707250334
98,talnakh,69.4865,88.3972,-24.36,88,100,3.18,RU,1707250420
99,klyuchi,52.2667,79.1667,-9.01,83,81,4.89,RU,1707250420
100,woodstock,43.1334,-80.7497,5.04,65,56,0.45,CA,1707250218
101,broome,42.2506,-75.833,5.74,57,0,2.06,US,1707250422
102,albany,42.6001,-73.9662,4.26,58,6,2.57,US,1707250422
103,minas de marcona,-15.2119,-75.1103,22.4,75,86,4.73,PE,1707250423
104,portland,45.5234,-122.6762,10.35,89,75,1.79,US,1707250073
105,saipan,15.1355,145.701,24.39,73,0,4.12,MP,1707250425
106,wamba,8.9333,8.6,27.55,17,100,1.99,NG,1707250425
107,san luis de la loma,17.2706,-100.8939,28.9,59,0,3.55,MX,1707250426
108,hermanus,-34.4187,19.2345,19.89,77,70,7.29,ZA,1707250427
109,geraldton,-28.7667,114.6,22.23,30,0,4.12,AU,1707250427
110,caconda,-13.7333,15.0667,17.34,95,89,2.01,AO,1707250428
111,mahibadhoo,3.7833,72.9667,28.11,77,100,6.05,MV,1707250429
112,port moresby,-9.4431,147.1797,23.68,94,20,2.57,PG,1707250429
113,vilyuchinsk,52.9306,158.4028,-9.85,88,100,2.52,RU,1707250430
114,quelimane,-17.8786,36.8883,27.97,83,75,1.03,MZ,1707250431
115,labuan,5.2767,115.2417,26.53,85,100,1.11,MY,1707250431
116,isafjordur,66.0755,-23.124,-3.01,91,100,10.01,IS,1707250432
117,matane,48.8286,-67.522,-4.54,83,69,1.49,CA,1707250433
118,badger,64.8,-147.5333,-17.23,81,75,0.0,US,1707250433
119,saudarkrokur,65.7461,-19.6394,-1.58,80,88,8.07,IS,1707250254
120,bahia honda,22.9036,-83.1592,21.71,59,9,8.26,CU,1707250435
121,al mijlad,11.0333,27.7333,22.28,15,6,7.02,SD,1707250435
122,olonkinbyen,70.9221,-8.7187,-1.5,83,42,8.99,SJ,1707250436
123,vorgashor,67.5833,63.95,-22.65,97,100,2.17,RU,1707250437
124,port douglas,-16.4833,145.4667,26.47,86,100,1.16,AU,1707250437
125,suez,29.9737,32.5263,14.79,56,0,1.53,EG,1707250438
126,richards bay,-28.783,32.0377,21.71,85,0,2.3,ZA,1707250439
127,dadukou,26.5479,101.7054,8.66,80,2,0.24,CN,1707250439
128,villamontes,-21.25,-63.5,35.98,30,100,3.11,BO,1707250440
129,aykhal,66.0,111.5,-28.03,100,100,2.48,RU,1707250441
130,klaksvik,62.2266,-6.589,-1.49,60,92,8.63,FO,1707250441
131,boguchany,58.3814,97.4531,-12.86,99,95,1.79,RU,1707250442
132,kamennomostskiy,44.2983,40.1856,4.06,86,100,5.0,RU,1707250443
133,ailuk,10.2197,169.9797,26.77,80,48,8.05,MH,1707250444
134,laguna,38.421,-121.4238,14.06,81,75,4.12,US,1707250445
135,ust-nera,64.5667,143.2,-32.87,88,99,0.3,RU,1707250446
136,georgetown,5.4112,100.3354,26.96,89,40,1.54,MY,1707250256
137,narasaraopet,16.25,80.0667,21.33,95,0,2.34,IN,1707250447
138,bredasdorp,-34.5322,20.0403,22.17,61,14,7.09,ZA,1707250453
139,tazacorte,28.629,-17.9293,19.54,49,0,2.24,ES,1707250454
140,nyurba,63.2842,118.3319,-32.77,100,100,0.53,RU,1707250455
141,chonchi,-42.6128,-73.8092,17.84,96,100,3.73,CL,1707250455
142,itajuba,-22.4256,-45.4528,28.97,87,100,0.74,BR,1707250456
143,san pedro pochutla,15.7333,-96.4667,29.84,46,7,3.71,MX,1707250457
144,kayangel,8.0823,134.7173,27.35,77,100,9.27,PW,1707250457
145,mazagao,-0.115,-51.2894,30.03,58,14,3.86,BR,1707250458
146,okha,53.5739,142.9478,-22.8,99,75,4.6,RU,1707250459
147,ekibastuz,51.6667,75.3667,-5.02,77,100,3.91,KZ,1707250459
148,kununurra,-15.7667,128.7333,25.99,94,16,1.54,AU,1707250460
149,san patricio,28.017,-97.5169,20.97,44,0,1.66,US,1707250461
150,zhangjiakou,40.81,114.8794,-13.18,85,11,2.87,CN,1707250462
151,acapulco de juarez,16.8634,-99.8901,28.9,65,20,3.09,MX,1707250296
152,el nido,11.1858,119.3956,26.27,77,98,5.87,PH,1707250463
153,chibougamau,49.9168,-74.3659,-4.21,63,40,4.12,CA,1707250464
154,st. john's,47.5649,-52.7093,0.93,95,100,14.31,CA,1707250381
155,toliara,-23.35,43.6667,24.89,89,5,3.73,MG,1707250465
156,siocon,7.7061,122.1353,24.46,90,75,1.37,PH,1707250466
157,jamestown,42.097,-79.2353,6.96,47,0,2.57,US,1707250305
158,copiapo,-27.3667,-70.3333,30.72,33,76,5.35,CL,1707250168
159,saint-joseph,-21.3667,55.6167,23.21,81,69,5.03,RE,1707250468
160,okhotsk,59.3833,143.3,-22.81,82,100,3.67,RU,1707250469
161,miches,18.9836,-69.0476,27.11,63,3,9.02,DO,1707250469
162,ambon,-3.6954,128.1814,26.71,14,40,3.6,ID,1707250470
163,mlimba,-8.8,35.8167,23.15,95,65,1.5,TZ,1707250471
164,usogorsk,63.4106,48.6872,-28.52,100,98,0.58,RU,1707250471
165,westhill,57.1526,-2.2797,1.53,84,40,3.6,GB,1707250459
166,grigoropolisskaya,45.2972,41.0567,5.36,93,100,8.43,RU,1707250473
167,raja,8.4596,25.678,23.16,18,26,2.13,SS,1707250474
168,avarua,-21.2078,-159.775,29.03,79,40,6.17,CK,1707250475
169,san sebastian de la gomera,28.0916,-17.1133,20.21,68,0,0.0,ES,1707250476
170,zakynthos,37.7914,20.8953,13.13,79,5,1.68,GR,1707250476
171,wailua homesteads,22.0669,-159.378,23.24,74,75,10.8,US,1707250477
172,touros,-5.1989,-35.4608,28.43,72,100,6.22,BR,1707250292
173,piton saint-leu,-21.2196,55.3151,24.04,69,0,2.57,RE,1707250414
174,kiuruvesi,63.65,26.6167,-23.09,100,81,1.28,FI,1707250479
175,benguela,-12.5763,13.4055,27.29,76,82,0.62,AO,1707250480
176,derzhavinsk,51.1,66.3167,0.7,77,100,9.81,KZ,1707250487
177,mar del plata,-38.0023,-57.5575,23.07,91,100,5.36,AR,1707250487
178,puerto penasco,31.3167,-113.5333,17.17,84,100,7.6,MX,1707250488
179,shetpe,44.1667,52.1167,-0.49,72,13,10.88,KZ,1707250489
180,stettler,52.3168,-112.7186,-7.14,100,50,4.63,CA,1707250490
181,necochea,-38.5473,-58.7368,26.91,62,71,8.54,AR,1707250491
182,paramirim,-13.4425,-42.2389,24.99,71,100,1.06,BR,1707250491
183,longyearbyen,78.2186,15.6401,-10.09,67,40,5.66,SJ,1707250492
184,pontalina,-17.525,-49.4472,26.02,75,100,2.04,BR,1707250493
185,aomori,40.8244,140.74,-1.17,69,99,1.34,JP,1707250493
186,hasaki,35.7333,140.8333,0.16,56,100,7.71,JP,1707250494
187,san antonio de pale,-1.4014,5.6325,28.37,77,38,1.08,GQ,1707250495
188,enewetak,11.3474,162.3373,26.47,81,54,7.55,MH,1707250495
189,tsiombe,-25.3,45.4833,22.75,95,66,2.18,MG,1707250496
190,kapit,2.0167,112.9333,23.39,99,100,0.09,MY,1707250497
191,comodoro rivadavia,-45.8667,-67.5,26.92,21,0,7.72,AR,1707250497
192,betare oya,5.6,14.0833,26.12,23,99,3.06,CM,1707250498
193,callao,-12.0667,-77.15,29.16,61,0,7.2,PE,1707250499
194,priob'ye,62.5206,65.5964,-7.76,96,100,2.1,RU,1707250499
195,ghosi,26.1083,83.5436,12.35,59,7,4.48,IN,1707250500
196,happy valley-goose bay,53.3168,-60.3315,-9.83,57,20,2.57,CA,1707250501
197,flying fish cove,-10.4217,105.6791,22.82,100,40,1.54,CX,1707250502
198,tazovsky,67.4667,78.7,-13.75,95,100,4.49,RU,1707250503
199,terra rica,-22.7094,-52.6169,32.52,38,100,2.72,BR,1707250503
200,tubarjal,30.4999,38.216,12.0,59,5,3.75,SA,1707250504
201,kalabo,-14.97,22.6814,21.28,90,81,2.54,ZM,1707250505
202,mount gambier,-37.8333,140.7667,11.45,91,34,0.51,AU,1707250506
203,moyale,3.5167,39.0584,25.54,31,88,4.89,KE,1707250506
204,port alfred,-33.5906,26.891,23.13,91,96,4.19,ZA,1707250507
205,pisco,-13.7,-76.2167,30.03,54,0,10.8,PE,1707250508
206,tatarsk,55.219,75.9828,-9.11,91,76,4.06,RU,1707250508
207,muromtsevo,56.3724,75.2418,-6.55,91,95,4.0,RU,1707250509
208,matam,15.6175,-13.3303,30.1,8,0,3.97,SN,1707250510
209,lata,40.1629,-8.3327,12.18,90,29,1.05,PT,1707250510
210,lebu,-37.6167,-73.65,20.02,82,66,2.88,CL,1707250511
211,port elizabeth,-33.918,25.5701,22.83,92,75,7.72,ZA,1707250512
212,port lincoln,-34.7333,135.8667,15.67,80,6,3.4,AU,1707250367
213,calvinia,-31.4707,19.776,17.89,56,9,4.49,ZA,1707250513
214,gamba,-2.65,10.0,26.5,81,96,2.49,GA,1707250514
215,gijang,35.2442,129.2139,0.85,76,100,1.99,KR,1707250514
216,riyadh,24.6877,46.7219,12.08,37,0,3.44,SA,1707250312
217,madera,37.1666,-119.8343,12.05,90,100,1.66,US,1707250516
218,ghat,24.9647,10.1728,14.09,29,1,2.53,LY,1707250517
219,khabarovsk,48.4808,135.0928,-25.11,84,0,0.0,RU,1707250389
220,talcahuano,-36.7167,-73.1167,18.83,87,40,4.32,CL,1707250518
221,isola di capo rizzuto,38.96,17.0933,12.27,76,17,1.69,IT,1707250519
222,misratah,32.3754,15.0925,16.73,62,1,2.08,LY,1707250519
223,ulan bator,47.9077,106.8832,-28.93,69,0,0.0,MN,1707250512
224,remire-montjoly,4.9167,-52.2667,26.02,94,40,1.54,GF,1707250521
225,sao jose da coroa grande,-8.8978,-35.1478,28.48,71,88,4.68,BR,1707250522
226,sabang,5.8933,95.3214,27.47,79,100,5.91,ID,1707250523
227,camrose,53.0168,-112.8353,-5.61,76,87,3.85,CA,1707250524
228,lerwick,60.1545,-1.1494,1.0,62,100,10.47,GB,1707250525
229,vengerovo,55.6848,76.7471,-8.96,91,99,4.0,RU,1707250526
230,carauari,-4.8828,-66.8958,29.49,79,100,0.36,BR,1707250392
231,mahalapye,-23.1041,26.8142,27.95,26,4,2.57,BW,1707250527
232,quellon,-43.1167,-73.6167,15.13,96,100,7.13,CL,1707250528
233,timimoun,29.2639,0.231,15.21,31,0,2.06,DZ,1707250529
234,cabo san lucas,22.8909,-109.9124,28.12,61,20,3.6,MX,1707250472
235,egersund,58.4513,5.9997,0.21,86,100,1.95,NO,1707250530
236,trairi,-3.2778,-39.2689,29.09,72,77,6.43,BR,1707250485
237,kaoma,-14.7833,24.8,19.98,90,85,1.4,ZM,1707250532
238,uige,-7.6087,15.0613,19.71,95,100,1.32,AO,1707250532
239,tura,25.5198,90.2201,13.88,90,0,0.81,IN,1707250533
240,fortuna,40.5982,-124.1573,10.52,90,100,5.14,US,1707250534
241,jindabyne,-36.4167,148.6333,5.32,94,17,0.58,AU,1707250534
242,lautoka,-17.6167,177.4667,27.92,78,40,2.57,FJ,1707250535
243,santa elena de uairen,4.6167,-61.1333,27.05,54,77,3.06,VE,1707250536
244,howrah,22.5892,88.3103,22.0,88,75,0.0,IN,1707250536
245,kindia,10.0569,-12.8658,26.87,21,0,1.43,GN,1707250537
246,papao,-17.75,-149.55,28.82,86,99,7.29,PF,1707250538
247,gadzhiyevo,69.2551,33.3362,-18.51,100,95,4.97,RU,1707250538
248,fenyi,27.8112,114.6681,1.74,97,100,1.06,CN,1707250539
249,kapuskasing,49.4169,-82.4331,4.05,87,100,5.14,CA,1707250540
250,la ronge,55.1001,-105.2842,-15.86,72,100,4.63,CA,1707250477
251,huarmey,-10.0681,-78.1522,27.69,68,18,5.16,PE,1707250541
252,orrville,40.8437,-81.764,8.08,44,0,0.0,US,1707250354
253,alta,69.9689,23.2717,-15.41,85,75,2.06,NO,1707250542
254,anadyr,64.75,177.4833,-23.72,76,20,6.0,RU,1707250543
255,udachny,66.4167,112.4,-29.2,82,94,1.94,RU,1707250544
256,mount pearl,47.5166,-52.7813,0.47,96,100,12.86,CA,1707250408
257,kamaishi,39.2667,141.8833,-0.21,70,100,1.4,JP,1707250545
258,greenville,35.6127,-77.3663,11.09,44,0,8.23,US,1707250421
259,petropavlovsk-kamchatsky,53.0452,158.6483,-10.67,84,75,2.24,RU,1707250547
260,new norfolk,-42.7826,147.0587,12.72,82,93,1.36,AU,1707250547
261,fisterra,42.9049,-9.2629,13.75,91,99,8.23,ES,1707250548
262,joshimath,30.5667,79.5667,-0.67,48,16,4.13,IN,1707250549
263,porto novo,6.4965,2.6036,26.9,64,6,2.26,BJ,1707250550
264,bussoleno,45.1403,7.1464,9.02,85,100,1.99,IT,1707250551
265,soio,-6.1349,12.3689,26.44,83,98,2.86,AO,1707250551
266,coquimbo,-29.9533,-71.3436,21.85,73,0,6.17,CL,1707250552
267,wagar,16.1525,36.2032,21.48,51,53,5.56,SD,1707250553
268,iskateley,67.6803,53.1512,-27.77,99,97,1.34,RU,1707250553
269,lagoa,39.05,-27.9833,15.46,95,100,7.53,PT,1707250554
270,west bay,19.3667,-81.4167,27.04,57,40,7.2,KY,1707250555
271,colonia,50.9333,6.95,12.2,74,40,7.2,DE,1707250521
272,pereiaslav-khmelnytskyi,50.0877,31.4795,4.37,93,100,6.32,UA,1707250561
273,kavarna,43.4333,28.3333,13.65,37,68,3.63,BG,1707250562
274,petawawa,45.9001,-77.3328,-0.12,56,40,2.06,CA,1707250563
275,bumba,2.1833,22.4667,25.19,39,5,0.52,CD,1707250563
276,yamada,39.4667,141.95,-0.74,71,100,1.22,JP,1707250564
277,alice town,25.7167,-79.3,19.45,72,100,14.3,BS,1707250565
278,aneho,6.2333,1.6,26.6,63,9,3.44,TG,1707250566
279,shibetsu,43.659,145.132,-10.09,85,67,1.46,JP,1707250567
280,guasdualito,7.2424,-70.7324,30.98,62,20,2.57,VE,1707250568
281,sulak,43.2734,47.5146,3.96,81,100,9.53,RU,1707250570
282,namibe,-15.1961,12.1522,25.11,79,100,0.56,AO,1707250571
283,suva,-18.1416,178.4415,26.71,83,75,4.63,FJ,1707250347
284,northam,51.0333,-4.2167,13.14,97,100,13.76,GB,1707250572
285,dudinka,69.4058,86.1778,-19.62,87,100,3.58,RU,1707250573
286,boizenburg,53.3833,10.7167,9.14,88,100,9.7,DE,1707250573
287,umag,45.4314,13.5239,9.01,87,100,1.03,HR,1707250574
288,arhavi,41.3492,41.3069,11.95,86,100,4.88,TR,1707250578
289,arraial do cabo,-22.9661,-42.0278,28.98,74,75,4.63,BR,1707250579
290,flin flon,54.7682,-101.865,-14.09,78,100,2.06,CA,1707250516
291,pajan,-1.5667,-80.4167,29.55,73,65,2.2,EC,1707250582
292,tidjikja,18.5564,-11.4271,24.08,9,6,5.13,MR,1707250583
293,abepura,-2.6333,140.5833,24.45,94,75,2.06,ID,1707250583
294,alice springs,-23.7,133.8833,21.79,74,82,6.17,AU,1707250485
295,la plata,-34.9215,-57.9545,34.12,43,89,5.94,AR,1707250586
296,massawa,15.6097,39.45,24.53,66,94,4.1,ER,1707250587
297,kulhudhuffushi,6.6221,73.07,27.65,75,45,4.33,MV,1707250588
298,moree,-29.4667,149.85,25.34,75,29,6.41,AU,1707250588
299,iaciara,-14.0958,-46.6317,26.86,68,100,1.93,BR,1707250589
300,novyy urgal,51.0736,132.5642,-31.9,100,100,0.64,RU,1707250589
301,campeni,46.3667,23.05,6.83,95,100,2.83,RO,1707250590
302,vadso,70.0744,29.7487,-8.91,92,75,6.69,NO,1707250591
303,greymouth,-42.4667,171.2,15.7,82,72,1.33,NZ,1707250297
304,fort bragg,35.139,-79.006,13.14,36,0,7.2,US,1707250592
305,malvan,16.0667,73.4667,25.67,67,0,5.48,IN,1707250593
306,sampit,-2.5333,112.95,24.21,92,100,0.59,ID,1707250593
307,lensk,60.7253,114.9278,-10.5,95,100,2.86,RU,1707250594
308,maintirano,-18.0667,44.0167,27.03,85,99,3.21,MG,1707250595
309,mil'kovo,55.6078,37.7956,-4.27,99,86,2.3,RU,1707250596
310,bitam,2.076,11.5007,24.69,31,92,1.01,GA,1707250597
311,campo formoso,-10.5075,-40.3214,29.97,40,88,3.67,BR,1707250597
312,ribeira brava,32.65,-17.0667,19.35,63,68,1.96,PT,1707250598
313,tindouf,27.6711,-8.1474,18.25,24,0,2.06,DZ,1707250599
314,kakata,6.53,-10.3517,25.79,81,0,2.26,LR,1707250599
315,dunedin,-45.8742,170.5036,13.78,99,100,3.13,NZ,1707250600
316,qaqortoq,60.7167,-46.0333,-16.17,61,0,3.98,GL,1707250601
317,susuman,62.7833,148.1667,-33.34,99,99,1.34,RU,1707250602
318,inhambane,-23.865,35.3833,23.93,79,0,3.53,MZ,1707250603
319,santiago de cao,-7.9589,-79.2392,26.07,78,20,5.66,PE,1707250603
320,gharavuti,37.5672,68.4469,6.36,40,100,2.15,TJ,1707250604
321,sao vicente,-23.9631,-46.3919,30.15,56,40,4.12,BR,1707250605
322,tangalle,6.024,80.7911,22.61,87,38,4.37,LK,1707250605
323,pueblo nuevo,23.3833,-105.3833,23.8,12,3,3.52,MX,1707250606
324,laojunmiao,39.8333,97.7333,-8.2,69,100,1.02,CN,1707250607
325,kananga,-5.8958,22.4178,21.1,95,50,1.19,CD,1707250608
326,recife,-8.0539,-34.8811,30.02,70,40,4.12,BR,1707250407
327,berezovyy,51.6667,135.7,-22.25,95,5,1.52,RU,1707250341
328,neijiang,29.5835,105.0622,5.81,88,82,1.58,CN,1707250610
329,mejit,10.2753,170.8646,26.83,79,74,7.74,MH,1707250610
330,viedma,-40.8135,-62.9967,35.43,33,100,4.23,AR,1707250611
331,great falls,47.5002,-111.3008,-2.34,86,100,0.0,US,1707250612
332,solnechnyy,50.7214,136.6319,-29.43,97,26,1.58,RU,1707250612
333,whakatane,-37.9585,176.9854,20.99,93,22,0.89,NZ,1707250613
334,chhor,25.5167,69.7667,22.18,42,100,2.81,PK,1707250614
335,kone,-21.0595,164.8658,25.38,90,100,2.4,NC,1707250615
336,yatou,37.15,122.3833,-3.49,70,0,7.04,CN,1707250615
337,trindade,-16.6494,-49.4889,30.86,65,97,2.06,BR,1707250616
338,winnemucca,40.973,-117.7357,2.03,87,100,3.09,US,1707250617
339,ewo,-0.8725,14.8206,27.2,58,57,1.86,CG,1707250617
340,uyuni,-20.4597,-66.825,12.58,57,100,6.58,BO,1707250618
341,puerto baquerizo moreno,-0.9,-89.6,28.55,79,75,4.12,EC,1707250619
342,peruibe,-24.32,-46.9983,27.35,74,100,2.72,BR,1707250619
343,crane,31.3974,-102.3501,17.54,34,100,8.61,US,1707250620
344,amvrosiyivka,47.7935,38.4777,0.17,93,71,4.32,UA,1707250621
345,chusovoy,58.3013,57.8131,-4.8,91,100,4.76,RU,1707250622
346,sisimiut,66.9395,-53.6735,-10.24,69,100,8.28,GL,1707250622
347,christchurch,-43.5333,172.6333,19.19,78,100,4.12,NZ,1707250623
348,conception bay south,47.4999,-52.9981,0.8,97,100,14.12,CA,1707250624
349,polyarnyy,69.1989,33.4478,-17.89,99,90,5.03,RU,1707250624
350,kamiiso,41.8167,140.65,-4.79,74,40,2.57,JP,1707250625
351,nemuro,43.3236,145.575,-8.18,73,13,1.91,JP,1707250626
352,mont-laurier,46.5501,-75.4993,0.79,82,40,0.57,CA,1707250626
353,bonthe,7.5264,-12.505,27.45,82,0,4.23,SL,1707250627
354,santa barbara,34.7333,-120.0343,10.19,70,100,2.06,US,1707250561
355,am timan,11.0297,20.2827,26.44,16,37,2.73,TD,1707250628
356,al hufuf,25.3646,49.5653,13.19,54,0,2.06,SA,1707250629
357,east ballina,-28.8667,153.5833,23.22,88,32,4.1,AU,1707250630
358,san juan bautista,-14.0108,-75.7358,30.95,46,63,8.24,PE,1707250630
359,sola,-13.8833,167.55,28.35,75,46,7.04,VU,1707250631
360,santa terezinha,-29.9002,-50.0904,24.67,85,100,4.95,BR,1707250632
361,takanabe,32.1333,131.5,9.94,81,91,2.03,JP,1707250633
362,ocean city,39.2776,-74.5746,7.14,62,6,4.02,US,1707250633
363,reggane,26.7158,0.1714,17.97,17,5,2.99,DZ,1707250634
364,karatuzskoye,53.6072,92.8667,-19.23,98,23,0.89,RU,1707250635
365,merida,20.9667,-89.6167,25.01,53,75,4.12,MX,1707250502
366,helena valley west central,46.6629,-112.0604,7.26,78,100,1.54,US,1707250636
367,pangody,65.85,74.4859,-19.07,100,82,2.84,RU,1707250637
368,rongelap,11.1635,166.8941,26.52,80,99,6.81,MH,1707250637
369,baglung,28.2719,83.5898,8.19,45,27,2.64,NP,1707250638
370,saldanha,-33.0117,17.9442,21.03,95,35,3.42,ZA,1707250639
371,springbok,-29.6643,17.8865,16.79,63,81,3.13,ZA,1707250639
372,lang son,21.8333,106.7333,11.19,94,100,2.52,VN,1707250640
373,kikwit,-5.041,18.8162,22.38,86,100,1.11,CD,1707250641
374,itambacuri,-18.0311,-41.685,24.22,89,100,1.42,BR,1707250641
375,kenora,49.8167,-94.4337,0.54,100,100,2.57,CA,1707250642
376,howard springs,-12.497,131.047,27.95,96,46,2.35,AU,1707250643
377,masterton,-40.9597,175.6575,21.72,58,13,3.16,NZ,1707250643
378,sechura,-5.5569,-80.8222,29.36,62,50,6.25,PE,1707250645
379,hirara,24.8,125.2833,18.15,82,100,2.06,JP,1707250645
380,raduzhny,62.0961,77.475,-0.78,95,100,3.92,RU,1707250646
381,nar'yan-mar,67.6713,53.087,-27.72,99,97,1.34,RU,1707250647
382,mwinilunga,-11.7358,24.4293,16.52,99,70,1.72,ZM,1707250647
383,ngaoundere,7.3167,13.5833,20.97,22,100,2.44,CM,1707250456
384,south hedland,-20.4089,118.5983,26.96,78,11,2.57,AU,1707250649
385,tobelo,1.7284,128.0095,25.39,84,100,2.22,ID,1707250649
386,pericos,25.05,-107.7,27.95,18,58,4.45,MX,1707250650
387,coahuayana de hidalgo,18.7,-103.6583,30.78,50,0,3.26,MX,1707250651
388,bodo,67.28,14.405,-6.79,79,75,6.69,NO,1707250651
389,cobija,-11.0267,-68.7692,34.1,52,20,2.57,BO,1707250652
390,baranovichi,53.1327,26.0139,3.15,99,100,5.68,BY,1707250653
391,slanic,45.25,25.9333,8.71,49,88,2.85,RO,1707250653
392,tateyama,34.9833,139.8667,6.17,69,100,5.86,JP,1707250654
393,posto fiscal rolim de moura,-13.0833,-62.2667,34.16,45,100,0.83,BR,1707250655
394,san francisco de la paz,14.9,-86.2,32.84,31,0,5.02,HN,1707250656
395,turbat,26.0023,63.044,18.74,66,15,1.01,PK,1707250656
396,shihezi,44.3,86.0333,-15.87,95,91,1.81,CN,1707250657
397,slave lake,55.2834,-114.769,-8.01,86,100,4.63,CA,1707250517
398,swedru,5.5371,-0.6998,25.61,71,9,2.55,GH,1707250658
399,maunabo,18.0072,-65.8993,27.9,93,100,6.26,PR,1707250659
400,weno,7.4515,151.8468,26.97,74,75,4.63,FM,1707250660
401,hadibu,12.65,54.0333,24.76,72,5,3.79,YE,1707250660
402,cherdyn',60.403,56.4787,-11.18,93,100,1.53,RU,1707250661
403,olyokminsk,60.3736,120.4264,-15.91,99,98,1.04,RU,1707250662
404,ola,59.5833,151.2833,-22.33,85,98,4.0,RU,1707250662
405,codrington,-38.2667,141.9667,11.51,89,26,1.49,AU,1707250663
406,guerrero negro,27.9769,-114.0611,15.54,87,100,5.0,MX,1707250664
407,bokhan,53.153,103.7714,-20.92,100,38,1.42,RU,1707250665
408,fomboni,-12.28,43.7425,29.33,77,12,3.79,KM,1707250666
409,ulanhot,46.0833,122.0833,-15.8,80,3,2.34,CN,1707250667
410,visakhapatnam,17.69,83.2093,23.38,81,0,2.47,IN,1707250668
411,klyavlino,54.2649,52.0267,-2.44,98,100,3.01,RU,1707250668
412,kunyang,27.6658,120.5658,5.22,93,100,2.19,CN,1707250669
413,ugoofaaru,5.6667,73.0,27.85,71,13,6.31,MV,1707250670
414,alakurtti,66.9672,30.3491,-22.93,100,100,0.69,RU,1707250670
415,nabire,-3.3667,135.4833,24.92,88,100,1.19,ID,1707250671
416,emerald,-23.5333,148.1667,25.75,79,79,2.7,AU,1707250672
417,fort mcmurray,56.7268,-111.381,-11.23,72,100,5.66,CA,1707250672
418,akrehamn,59.2667,5.1833,1.34,100,100,5.14,NO,1707250674
419,tabou,4.423,-7.3528,28.17,78,2,4.82,CI,1707250674
420,port augusta,-32.5,137.7667,16.67,52,0,4.19,AU,1707250675
421,titabar,26.6,94.2,13.35,94,43,0.33,IN,1707250676
422,sodankyla,67.4167,26.6,-22.19,100,100,1.66,FI,1707250676
423,bafq,31.6128,55.4107,10.23,21,0,3.31,IR,1707250677
424,altamira,-3.2033,-52.2064,29.24,66,93,1.64,BR,1707250678
425,jayapura,-2.5333,140.7,24.66,93,100,6.08,ID,1707250678
426,bornu yassu,12.2774,12.5552,20.14,24,59,4.18,NG,1707250679
427,esfarayen,37.0765,57.5101,1.81,73,75,2.62,IR,1707250680
428,cestos city,5.46,-9.5828,27.74,83,0,4.42,LR,1707250680
429,stranraer,54.9023,-5.0273,5.62,62,100,6.01,GB,1707250635
430,bandarbeyla,9.4942,50.8122,25.05,75,0,6.85,SO,1707250682
431,horta,38.5333,-28.6333,16.8,96,75,5.81,PT,1707250682
432,corigliano scalo,39.6266,16.512,15.78,57,23,2.74,IT,1707250683
433,anna regina,7.2644,-58.5077,28.42,76,34,5.64,GY,1707250684
434,salalah,17.0151,54.0924,22.19,54,50,0.8,OM,1707250684
435,yershov,51.3513,48.2766,-6.52,86,97,9.55,RU,1707250685
436,aksuat,48.7167,83.7,-14.85,80,8,1.66,KZ,1707250686
437,elche,38.2622,-0.7011,18.01,63,0,3.58,ES,1707250686
438,newman,37.3138,-121.0208,12.25,78,98,3.67,US,1707250687
439,umm kaddadah,13.6017,26.6876,17.97,20,6,7.1,SD,1707250688
440,corumba,-19.0092,-57.6533,29.84,74,75,5.14,BR,1707250688
441,pimentel,-6.8367,-79.9342,31.16,51,0,8.75,PE,1707250689
442,darwin,-12.4611,130.8418,27.99,86,33,3.6,AU,1707250443
443,constantia,44.1833,28.65,8.38,58,48,5.64,RO,1707250690
444,limoux,42.9167,2.1667,12.06,84,100,2.3,FR,1707250691
445,vallenar,-28.5708,-70.7581,29.16,39,100,3.23,CL,1707250692
446,punto fijo,11.6956,-70.1996,27.81,76,16,4.38,VE,1707250692
447,marquette,46.5333,-87.6335,8.91,61,100,2.68,US,1707250693
448,knysna,-34.0363,23.0471,20.85,89,97,1.77,ZA,1707250694
449,isabela,6.7085,121.9711,24.19,84,94,0.83,PH,1707250695
450,tadpatri,14.9167,78.0167,24.26,60,0,2.33,IN,1707250695
451,tamarin,-20.3256,57.3706,26.96,92,79,4.91,MU,1707250696
452,pervomaysk,48.0443,30.8507,7.26,73,100,5.16,UA,1707250697
453,cadale,2.7603,46.3222,26.67,86,86,7.73,SO,1707250697
454,pangai,-19.8,-174.35,28.06,74,75,4.63,TO,1707250698
455,lompoc,34.6391,-120.4579,14.41,63,100,4.63,US,1707250699
456,harper,4.375,-7.7169,27.84,81,3,4.79,LR,1707250699
457,swakopmund,-22.6833,14.5333,20.47,87,79,4.45,NA,1707250700
458,ishigaki,24.3448,124.1572,20.07,77,100,2.57,JP,1707250701
459,haiku-pauwela,20.9219,-156.3051,24.59,66,20,9.26,US,1707250702
460,whangarei,-35.7317,174.3239,18.26,86,46,1.1,NZ,1707250702
461,bandar-e anzali,37.4727,49.4622,10.53,78,0,3.03,IR,1707250707
462,choibalsan,48.0667,114.5,-20.56,92,9,3.43,MN,1707250708
463,silifke,36.3778,33.9344,14.9,60,0,1.67,TR,1707250708
464,langepas,61.2544,75.2124,-1.22,92,100,5.41,RU,1707250709
465,yonggwang-up,40.0183,127.4547,-5.15,86,13,1.76,KP,1707250710
466,bouca,6.5105,18.2733,26.79,23,49,2.24,CF,1707250711
467,quebrangulo,-9.3189,-36.4711,29.72,52,76,7.75,BR,1707250711
468,kenai,60.5544,-151.2583,-7.97,93,75,0.0,US,1707250712
469,miyaly,48.8844,53.7836,-3.89,92,100,14.36,KZ,1707250713
470,gasa,31.5,34.4667,14.72,79,0,2.39,PS,1707250657
471,roosevelt,33.9668,-103.4505,15.12,35,98,7.96,US,1707250714
472,haldwani,29.2167,79.5167,10.89,60,42,1.9,IN,1707250715
473,suntar,62.1444,117.6319,-21.1,99,100,1.13,RU,1707250715
474,selkirk,50.1436,-96.8845,2.31,96,73,0.89,CA,1707250716
475,al wasitah,29.3378,31.2056,14.91,61,0,4.12,EG,1707250717
476,kendari,-3.945,122.4989,24.46,93,97,1.11,ID,1707250718
477,aitape,-3.1374,142.3475,25.5,91,100,4.45,PG,1707250718
478,port saint john's,-31.6229,29.5448,23.59,90,40,6.53,ZA,1707250719
479,smithers,54.7804,-127.1743,-2.82,80,100,1.03,CA,1707250514
480,rockland,41.1668,-74.0496,5.95,50,5,0.45,US,1707250720
481,bodaybo,57.8506,114.1933,-15.12,98,100,1.33,RU,1707250721
482,kingston,17.997,-76.7936,29.53,50,40,8.23,JM,1707250443
483,anatuya,-28.4606,-62.8347,42.03,17,67,4.22,AR,1707250722
484,glubokoye,50.1456,82.3114,-17.94,85,72,1.0,KZ,1707250723
485,pundong,-7.9522,110.3486,24.19,91,100,1.71,ID,1707250724
486,leeton,-34.5667,146.4,13.38,49,49,2.57,AU,1707250726
487,cruzeiro do sul,-29.5128,-51.9853,31.96,71,100,4.72,BR,1707250726
488,caetite,-14.0694,-42.475,26.58,58,100,2.18,BR,1707250727
489,pacific grove,36.6177,-121.9166,14.12,77,40,3.09,US,1707250728
490,mossel bay,-34.1831,22.146,21.96,82,99,1.82,ZA,1707250733
491,ketchikan,55.3422,-131.6461,2.41,80,100,1.54,US,1707250733
492,luza,60.6308,47.2512,-26.9,100,89,1.51,RU,1707250734
493,bargaal,11.2864,51.0773,24.69,79,15,3.34,SO,1707250735
494,kerikeri,-35.2268,173.9474,17.17,93,10,0.45,NZ,1707250735
495,nekrasovskoye,57.6766,40.3657,-20.06,84,40,0.0,RU,1707250736
496,lalibela,12.0333,39.0333,18.43,58,68,1.15,ET,1707250737
497,santiago del torno,-17.9833,-63.3833,34.42,42,79,3.14,BO,1707250737
498,machico,32.7,-16.7667,19.35,69,20,3.6,PT,1707250738
499,hami,42.8,93.45,-4.31,54,1,2.69,CN,1707250739
500,onguday,50.75,86.15,-16.64,96,48,1.37,RU,1707250739
501,petrolina,-9.3986,-40.5008,33.03,43,20,3.6,BR,1707250740
502,nova sintra,14.8667,-24.7167,21.14,72,0,3.9,CV,1707250741
503,santa maria de palautordera,41.7,2.45,11.95,85,100,0.59,ES,1707250742
504,high river,50.5834,-113.8687,-5.12,87,100,2.01,CA,1707250742
505,pacasmayo,-7.4006,-79.5714,27.34,65,32,6.79,PE,1707250743
506,tabas,33.5959,56.9244,10.67,27,0,1.77,IR,1707250744
507,iraquara,-12.2486,-41.6194,28.48,50,100,2.95,BR,1707250745
508,kidal,18.4411,1.4078,19.23,15,0,4.98,ML,1707250745
509,tisul',55.7611,88.3122,-10.83,92,100,1.56,RU,1707250746
510,hjorring,57.4642,9.9823,1.4,79,89,4.79,DK,1707250747
511,bhakkar,31.6253,71.0657,11.92,37,77,2.41,PK,1707250748
512,acarau,-2.8856,-40.12,29.26,71,99,8.29,BR,1707250748
513,uturoa,-16.7333,-151.4333,28.15,85,100,9.9,PF,1707250749
514,bubaque,11.2833,-15.8333,26.62,75,0,7.08,GW,1707250750
515,hillsboro,45.5229,-122.9898,10.29,86,100,1.34,US,1707250751
516,moose jaw,50.4001,-105.5344,-1.85,86,100,3.09,CA,1707250751
517,neryungri,56.6709,124.6491,-14.01,97,100,1.26,RU,1707250752
518,sangkhla buri,15.1555,98.4536,16.84,52,7,0.76,TH,1707250753
519,shumerlya,55.5005,46.4129,-14.93,94,91,4.31,RU,1707250753
520,sinjai,-5.1241,120.253,24.12,87,100,1.38,ID,1707250754
521,santa rosalia,27.3167,-112.2833,20.02,45,100,2.65,MX,1707250756
522,kalmunai,7.4167,81.8167,25.25,72,77,3.16,LK,1707250757
523,bishkek,42.87,74.59,-4.89,62,91,2.46,KG,1707250759
524,baiti,13.745,-14.7482,32.86,9,0,3.44,SN,1707250760
525,sydney,-33.8679,151.2073,18.73,72,75,8.75,AU,1707250395
526,gdov,58.7406,27.8122,-8.63,98,83,2.52,RU,1707250761
527,korsholm,63.1142,21.6822,-14.03,85,75,1.03,FI,1707250762
528,dryden,49.7833,-92.7503,2.16,87,100,2.06,CA,1707250762
529,caraballeda,10.6112,-66.8522,31.04,58,100,3.09,VE,1707250763
530,tibanbang,6.6315,126.1055,25.68,81,100,2.09,PH,1707250764
531,kitui,-1.367,38.0106,21.57,52,76,1.98,KE,1707250764
532,la'ie,21.6477,-157.9253,25.98,72,4,3.58,US,1707250765
533,gaiman,-43.2897,-65.4929,35.52,10,100,7.04,AR,1707250766
534,sorsk,54.0033,90.2467,-15.1,88,25,1.42,RU,1707250766
535,umluj,25.0213,37.2685,19.74,43,0,7.22,SA,1707250767
536,pandan,14.0453,124.1694,24.85,84,96,3.71,PH,1707250768
537,hammerfest,70.6634,23.6821,-4.75,74,75,3.09,NO,1707250768
538,tibati,6.4667,12.6333,24.49,19,51,3.79,CM,1707250769
539,iquique,-20.2208,-70.1431,29.02,77,16,3.94,CL,1707250770
540,muscatine,41.4667,-91.1335,12.1,51,0,2.57,US,1707250770
541,colac,-38.3333,143.5833,11.71,95,3,1.23,AU,1707250771
542,pariaman,-0.619,100.12,27.03,87,98,1.45,ID,1707250772
543,alaghsas,17.0187,8.0168,18.21,19,97,7.24,NE,1707250772
544,nizhniy odes,63.6445,54.856,-25.5,100,99,1.41,RU,1707250773
545,huayacocotla,20.55,-98.4833,16.3,42,0,3.49,MX,1707250774
546,hilo,19.7297,-155.09,23.49,78,100,2.57,US,1707250774
547,magong,23.5654,119.5863,17.77,88,100,11.58,TW,1707250637
548,al jubayl,27.0112,49.6583,18.09,45,0,3.26,SA,1707250776
549,saint-julien-en-genevois,46.0833,6.0833,3.48,82,0,4.12,FR,1707250776
550,chardara,41.2547,67.9692,11.3,36,100,9.14,KZ,1707250777
551,tokmok,42.8417,75.3016,1.97,48,78,3.6,KG,1707250778
552,funafuti,-8.5243,179.1942,28.0,83,100,7.2,TV,1707250778
553,glace bay,46.1969,-59.957,0.55,90,100,8.75,CA,1707250779
554,preobrazheniye,42.9019,133.9064,-8.98,60,0,3.15,RU,1707250780
555,svetlogorsk,52.6333,29.7333,-0.03,99,100,2.77,BY,1707250781
556,hancheng,32.5186,112.3522,-1.69,89,97,2.5,CN,1707250781
557,cabedelo,-6.9811,-34.8339,30.37,71,37,5.19,BR,1707250782
558,boende,-0.2167,20.8667,26.47,55,45,0.63,CD,1707250783
559,newport,51.5877,-2.9984,12.73,95,100,13.05,GB,1707250783
560,san rafael del sur,11.8485,-86.4384,27.54,66,68,1.81,NI,1707250784
561,motueka,-41.1333,173.0167,19.5,46,38,2.22,NZ,1707250785
562,klipphausen,51.0833,13.5333,10.4,77,20,9.26,DE,1707250786
563,ancud,-41.8697,-73.8203,16.37,97,100,9.08,CL,1707250787
564,taltal,-25.4,-70.4833,24.33,68,22,2.61,CL,1707250541
565,kon tum,14.35,108.0,19.6,94,0,0.83,VN,1707250788
566,moapa valley,36.5805,-114.4703,10.86,68,100,5.26,US,1707250714
567,lisala,2.15,21.5167,25.41,34,5,1.08,CD,1707250789
568,baoro,5.6667,15.9667,23.14,28,14,2.39,CF,1707250790
569,albesti,47.7,27.0667,8.57,73,100,1.77,RO,1707250791
570,maloye ganyushkino,46.6,49.2667,-0.39,68,28,10.01,KZ,1707250791
571,nouadhibou,20.931,-17.0347,23.99,38,49,5.66,MR,1707250793
572,semey,50.4111,80.2275,-8.77,78,85,6.04,KZ,1707250793
573,namie,37.4833,141.0,-2.79,94,39,2.31,JP,1707250794
