City_ID,City,Lat,Lng,Max Temp,Humidity,Cloudiness,Wind Speed,Country,Date
0,rumoi,43.9344,141.6428,-9.36,83,54,2.5,JP,1707177065
1,zhigalovo,54.8097,105.1578,-18.42,99,99,0.35,RU,1707177065
2,hamilton,39.1834,-84.5333,8.47,65,0,5.14,US,1707176939
3,hithadhoo,-0.6,73.0833,28.35,75,100,3.35,MV,1707177066
4,lampasas,31.2168,-98.2336,16.94,54,0,3.6,US,1707177067
5,maxixe,-23.8597,35.3472,23.72,90,12,0.68,MZ,1707177067
6,puerto ayora,-0.7393,-90.3518,25.86,95,76,0.89,EC,1707177068
7,lerwick,60.1545,-1.1494,4.0,98,100,12.69,GB,1707177068
8,ribeira grande,38.5167,-28.7,17.65,93,100,5.81,PT,1707177069
9,invercargill,-46.4,168.35,19.45,86,100,1.79,NZ,1707177011
10,vilyuchinsk,52.9306,158.4028,-8.85,70,78,3.11,RU,1707177070
11,prince rupert,54.3161,-130.3201,4.83,70,0,7.72,CA,1707177070
12,bethel,41.3712,-73.414,2.17,45,0,5.14,US,1707177071
13,port-aux-francais,-49.35,70.2167,6.11,78,98,12.71,TF,1707177072
14,luau,-10.7073,22.2247,18.0,98,100,1.44,AO,1707177072
15,polyarnyy,69.1989,33.4478,-18.48,100,98,3.37,RU,1707177073
16,ushuaia,-54.8,-68.3,10.81,54,0,7.2,AR,1707177073
17,woolgoolga,-30.1106,153.2007,31.13,64,69,5.23,AU,1707177073
18,nova sintra,14.8667,-24.7167,21.04,68,0,7.27,CV,1707177074
19,baependi,-21.9589,-44.89,18.16,95,96,1.21,BR,1707177074
20,chhor,25.5167,69.7667,19.21,54,50,3.19,PK,1707177075
21,tura,25.5198,90.2201,12.48,74,65,1.07,IN,1707177075
22,midvagur,62.0511,-7.1939,0.46,80,100,9.26,FO,1707177076
23,port augusta,-32.5,137.7667,20.81,38,0,9.48,AU,1707177076
24,klyuchi,52.2667,79.1667,-9.28,91,68,4.28,RU,1707177077
25,luanda,-8.8368,13.2343,28.0,89,40,2.06,AO,1707177078
26,grytviken,-54.2811,-36.5092,6.42,80,92,6.6,GS,1707177078
27,cabo san lucas,22.8909,-109.9124,28.61,32,20,4.12,MX,1707176296
28,puerto natales,-51.7236,-72.4875,10.5,71,45,0.32,CL,1707177079
29,xique xique,-10.8217,-42.7311,27.49,60,83,2.75,BR,1707177080
30,turkestan,43.3333,68.25,0.95,69,100,4.58,KZ,1707177080
31,tsiombe,-25.3,45.4833,22.64,91,99,3.85,MG,1707177081
32,ghat,24.9647,10.1728,10.06,41,8,2.13,LY,1707177081
33,yellowknife,62.456,-114.3525,-21.71,77,0,1.03,CA,1707177082
34,cidreira,-30.1811,-50.2056,24.27,87,58,5.36,BR,1707176800
35,katsuura,35.1333,140.3,5.19,97,100,8.91,JP,1707177083
36,waitangi,-43.9535,-176.5597,19.34,87,98,7.79,NZ,1707177084
37,port alfred,-33.5906,26.891,20.66,96,7,0.89,ZA,1707177084
38,bardai,11.65,7.2333,18.04,16,15,6.29,NG,1707177085
39,avarua,-21.2078,-159.775,31.03,74,40,7.72,CK,1707177085
40,vila velha,-20.3297,-40.2925,27.19,89,20,4.63,BR,1707177086
41,sola,-13.8833,167.55,28.6,74,80,6.42,VU,1707177087
42,ilulissat,69.2167,-51.1,-20.99,71,40,0.51,GL,1707177087
43,bilibino,68.0546,166.4372,-33.65,99,100,0.87,RU,1707177088
44,edinburgh of the seven seas,-37.0676,-12.3116,15.71,63,1,1.46,SH,1707177088
45,flin flon,54.7682,-101.865,0.91,93,100,1.54,CA,1707177089
46,gulf shores,30.246,-87.7008,11.67,72,57,1.79,US,1707176981
47,greymouth,-42.4667,171.2,19.77,66,99,3.49,NZ,1707177090
48,aral,40.5156,81.2636,-3.12,60,8,0.15,CN,1707177090
49,blackmans bay,-43.0167,147.3167,17.07,50,46,1.34,AU,1707177091
50,lompoc,34.6391,-120.4579,15.4,75,100,4.63,US,1707177091
51,ascension,30.2169,-90.9001,17.0,52,100,5.14,US,1707177092
52,tamanrasset,22.785,5.5228,10.95,22,0,7.2,DZ,1707177092
53,constantia,44.1833,28.65,8.38,77,54,7.61,RO,1707177093
54,port mathurin,-19.6833,63.4167,25.69,68,72,7.05,MU,1707177093
55,sharypovo,55.5403,89.2008,-8.19,87,80,2.68,RU,1707177094
56,krasnohrad,49.3814,35.4402,-1.02,89,97,10.36,UA,1707177094
57,papatowai,-46.5619,169.4708,20.35,62,100,3.56,NZ,1707177095
58,kirakira,-10.4544,161.9205,29.95,74,73,5.16,SB,1707177095
59,tolanaro,-25.0319,46.9987,23.04,94,75,5.14,MG,1707177096
60,papanasam,10.9333,79.2833,20.42,95,1,2.45,IN,1707177096
61,bredasdorp,-34.5322,20.0403,21.37,78,19,1.22,ZA,1707177097
62,hadibu,12.65,54.0333,24.56,73,18,2.73,YE,1707177097
63,margaret river,-33.95,115.0667,16.43,62,53,3.8,AU,1707177098
64,adamstown,-25.066,-130.1015,24.32,82,100,6.79,PN,1707177098
65,porto novo,6.4965,2.6036,26.9,69,34,1.16,BJ,1707177098
66,thompson,55.7435,-97.8558,-1.91,100,100,1.54,CA,1707177099
67,berdyansk,46.7503,36.7944,3.95,67,49,11.28,UA,1707177099
68,khandyga,62.6667,135.6,-43.35,100,61,0.93,RU,1707177100
69,booue,-0.0921,11.9385,24.08,90,65,0.5,GA,1707177100
70,keflavik,64.0049,-22.5624,-6.76,63,75,9.26,IS,1707177101
71,iqaluit,63.7506,-68.5145,-17.95,84,75,0.0,CA,1707177101
72,albany,42.6001,-73.9662,-0.87,49,1,0.45,US,1707176897
73,nova vicosa,-17.8919,-39.3719,25.52,88,80,3.13,BR,1707177102
74,ribas do rio pardo,-20.4431,-53.7592,21.88,94,100,1.68,BR,1707177102
75,ain sukhna,29.6002,32.3167,13.35,84,52,3.14,EG,1707177103
76,vorgashor,67.5833,63.95,-24.99,98,40,2.56,RU,1707177103
77,anadyr,64.75,177.4833,-22.72,77,100,7.0,RU,1707177104
78,lalganj,25.8667,85.1833,16.97,96,44,1.78,IN,1707177105
79,dudinka,69.4058,86.1778,-25.18,97,78,1.79,RU,1707177105
80,preobrazheniye,42.9019,133.9064,-7.09,56,99,2.01,RU,1707177106
81,amos,48.5669,-78.1162,-7.49,95,90,1.37,CA,1707177106
82,sudislavl',57.8817,41.7083,-13.28,98,99,1.44,RU,1707177106
83,nuku'alofa,-21.1333,-175.2,26.5,74,86,8.46,TO,1707177107
84,sretensk,52.2453,117.7093,-30.66,100,56,0.57,RU,1707177107
85,grootfontein,-19.5667,18.1167,21.76,73,100,1.54,NA,1707177108
86,jayapura,-2.5333,140.7,29.66,72,93,2.47,ID,1707177002
87,codrington,-38.2667,141.9667,17.99,49,4,5.7,AU,1707177109
88,hermanus,-34.4187,19.2345,21.0,86,40,2.22,ZA,1707177109
89,zholymbet,51.7433,71.7122,-4.74,87,100,8.66,KZ,1707177110
90,igarka,67.4667,86.5833,-26.36,98,42,2.72,RU,1707177110
91,tiksi,71.6872,128.8694,-32.28,96,59,1.53,RU,1707177111
92,haiku-pauwela,20.9219,-156.3051,25.7,64,20,11.83,US,1707177111
93,torghay,49.6339,63.4981,-1.02,94,100,6.42,KZ,1707177112
94,ouesso,1.6136,16.0517,22.74,41,54,0.21,CG,1707177112
95,stanley,54.868,-1.6985,10.4,80,75,6.17,GB,1707177113
96,udachny,66.4167,112.4,-23.64,83,100,1.83,RU,1707177113
97,longyearbyen,78.2186,15.6401,-4.09,74,75,4.63,SJ,1707177114
98,tazovsky,67.4667,78.7,-25.2,100,72,4.15,RU,1707177115
99,uturoa,-16.7333,-151.4333,27.08,91,100,6.98,PF,1707177115
100,hastings,50.8552,0.5729,11.1,38,100,11.04,GB,1707177116
101,badger,64.8,-147.5333,-12.94,77,40,0.0,US,1707177116
102,anna regina,7.2644,-58.5077,26.42,88,100,3.9,GY,1707177117
103,qaqortoq,60.7167,-46.0333,-21.09,70,0,2.98,GL,1707177117
104,wailua homesteads,22.0669,-159.378,25.24,63,75,8.75,US,1707177117
105,geraldton,-28.7667,114.6,25.23,23,60,12.86,AU,1707177075
106,laguna,38.421,-121.4238,15.62,70,100,3.6,US,1707177118
107,fort bragg,35.139,-79.006,11.32,40,0,2.06,US,1707177119
108,tenno,39.9,139.9667,-2.44,66,90,4.31,JP,1707177119
109,atafu village,-8.5421,-172.5159,28.62,79,100,12.39,TK,1707177120
110,west island,-12.1568,96.8225,26.99,89,95,2.57,CC,1707177120
111,sokoni,-6.4333,39.55,28.07,77,14,5.53,TZ,1707177121
112,acapulco de juarez,16.8634,-99.8901,26.66,67,2,1.78,MX,1707177121
113,georgetown,5.4112,100.3354,26.96,86,20,1.54,MY,1707176942
114,plastun,44.7561,136.2939,-10.82,60,13,2.42,RU,1707177122
115,ust-tsilma,65.441,52.1498,-33.55,100,100,0.45,RU,1707177123
116,hawaiian paradise park,19.5933,-154.9731,24.37,75,100,1.54,US,1707177123
117,vodnyy,63.5046,53.4095,-18.07,98,99,2.35,RU,1707177123
118,saint-philippe,-21.3585,55.7679,21.77,73,79,3.21,RE,1707177124
119,tarkwa,5.3064,-1.9847,24.82,89,7,0.99,GH,1707177124
120,sodo,6.8642,37.7628,16.88,71,99,1.44,ET,1707177125
121,portland,45.5234,-122.6762,9.95,93,100,4.12,US,1707176833
122,amga,60.8953,131.9608,-30.54,99,100,0.71,RU,1707177126
123,afaahiti,-17.75,-149.2833,24.93,89,100,9.72,PF,1707177126
124,qamdo,31.1667,97.2333,-8.35,50,80,3.03,CN,1707177127
125,laojunmiao,39.8333,97.7333,-9.99,82,100,2.58,CN,1707177127
126,casino,-28.8667,153.05,30.31,49,90,2.04,AU,1707177128
127,manacapuru,-3.2997,-60.6206,27.21,83,92,1.45,BR,1707177128
128,amungan,15.3652,119.9582,26.63,66,24,1.94,PH,1707177128
129,talnakh,69.4865,88.3972,-24.7,89,78,2.34,RU,1707177129
130,natal,-5.795,-35.2094,28.12,78,75,3.09,BR,1707176996
131,nantucket,41.2835,-70.0995,2.23,64,40,9.26,US,1707177130
132,belmonte,-15.8631,-38.8828,25.65,87,50,2.22,BR,1707177131
133,chervona sloboda,49.3789,32.1464,1.22,71,87,7.98,UA,1707177131
134,carauari,-4.8828,-66.8958,23.93,96,83,0.87,BR,1707177132
135,saipan,15.1355,145.701,27.39,61,40,6.69,MP,1707177132
136,cacador,-26.7753,-51.015,19.52,86,100,1.31,BR,1707177133
137,vadso,70.0744,29.7487,-8.91,86,20,4.12,NO,1707177133
138,kruisfontein,-34.0033,24.7314,19.94,93,0,3.23,ZA,1707177133
139,namibe,-15.1961,12.1522,24.71,81,97,3.66,AO,1707177134
140,verkhnevilyuysk,63.4453,120.3167,-36.09,100,82,0.81,RU,1707177135
141,thief river falls,48.1191,-96.1812,0.96,100,100,3.6,US,1707177136
142,santa catalina,9.3337,122.8637,26.67,75,93,1.88,PH,1707177136
143,thinadhoo,0.5333,72.9333,28.4,75,62,4.22,MV,1707177137
144,port lincoln,-34.7333,135.8667,18.15,53,0,5.02,AU,1707177137
145,olonkinbyen,70.9221,-8.7187,-2.33,68,75,11.0,SJ,1707177138
146,northam,51.0333,-4.2167,13.14,95,100,10.77,GB,1707177138
147,lebu,-37.6167,-73.65,17.7,89,95,2.88,CL,1707177139
148,tubarjal,30.4999,38.216,8.76,63,1,3.08,SA,1707177139
149,turkmenbasy,40.0222,52.9552,11.43,71,0,8.75,TM,1707177140
150,nkhotakota,-12.9274,34.2961,23.53,87,100,2.51,MW,1707177140
151,kuta,-8.7233,115.1723,27.97,83,40,3.6,ID,1707177141
152,pelotas,-31.7719,-52.3425,25.01,78,75,5.14,BR,1707177141
153,ulladulla,-35.35,150.4667,17.79,95,100,6.57,AU,1707177142
154,ezza-ohu,6.4373,8.0862,27.04,18,99,2.29,NG,1707177142
155,port elizabeth,-33.918,25.5701,21.17,95,100,5.14,ZA,1707177143
156,fale old settlement,-9.3852,-171.2468,28.85,79,92,11.97,TK,1707177144
157,orsa,54.5153,30.4053,-3.23,93,91,5.88,BY,1707177144
158,dunedin,-45.8742,170.5036,20.29,58,100,0.9,NZ,1707177144
159,ust-nera,64.5667,143.2,-29.14,84,100,0.51,RU,1707177145
160,okhotsk,59.3833,143.3,-22.66,81,68,5.69,RU,1707177145
161,novyy urgal,51.0736,132.5642,-28.89,99,100,0.49,RU,1707177146
162,alaghsas,17.0187,8.0168,17.42,15,99,8.67,NE,1707177146
163,veinticinco de mayo,-35.4323,-60.1727,31.66,53,83,2.24,AR,1707177147
164,nemuro,43.3236,145.575,-7.16,72,97,5.4,JP,1707177147
165,san fernando de apure,7.8878,-67.4724,27.0,77,100,2.99,VE,1707177148
166,katima mulilo,-17.5,24.2667,22.95,54,32,2.48,NA,1707177148
167,san juan de miraflores,-12.1629,-76.9635,27.29,76,25,2.29,PE,1707177149
168,nambucca heads,-30.65,153.0,31.2,62,56,5.17,AU,1707177149
169,elverum,60.8819,11.5623,-18.43,98,69,1.23,NO,1707177150
170,kodinsk,58.6881,99.1844,-6.98,99,98,1.55,RU,1707177150
171,xining,36.6167,101.7667,-8.8,94,100,0.62,CN,1707177150
172,machico,32.7,-16.7667,19.35,78,20,3.6,PT,1707177151
173,lospalos,-8.5186,127.0025,25.89,79,100,0.68,TL,1707177151
174,murud,18.3258,72.965,23.17,67,0,3.23,IN,1707177152
175,pianco,-7.1981,-37.9292,29.16,47,66,2.75,BR,1707177152
176,lihue,21.9789,-159.3672,25.58,63,75,8.75,US,1707177153
177,guanica,17.9716,-66.908,28.54,70,83,4.33,PR,1707177153
178,roccella ionica,38.322,16.4009,12.1,80,11,3.48,IT,1707177154
179,salinas,36.6777,-121.6555,14.99,79,100,2.57,US,1707177155
180,wotho,10.1657,166.0102,26.89,81,70,8.38,MH,1707177155
181,nar'yan-mar,67.6713,53.087,-18.83,97,100,1.79,RU,1707177156
182,chenaran,36.6455,59.1212,2.59,53,18,2.09,IR,1707177156
183,punta arenas,-53.15,-70.9167,13.06,50,20,6.69,CL,1707176945
184,ryotsu-minato,38.0833,138.4333,3.99,80,99,4.44,JP,1707177157
185,aruja,-23.3961,-46.3208,24.75,53,0,3.09,BR,1707177157
186,huarmey,-10.0681,-78.1522,25.38,77,41,3.44,PE,1707177158
187,kapuskasing,49.4169,-82.4331,-2.95,93,100,2.57,CA,1707177158
188,kissidougou,9.1848,-10.0999,23.84,20,0,0.39,GN,1707177159
189,acarau,-2.8856,-40.12,27.68,80,23,7.52,BR,1707177159
190,san patricio,28.017,-97.5169,18.92,64,67,4.72,US,1707177160
191,itoman,26.1247,127.6694,18.43,66,75,6.17,JP,1707177160
192,ma'rib,15.4591,45.3253,20.3,52,22,2.49,YE,1707177161
193,taulaga,-11.0553,-171.0883,29.08,78,86,11.24,AS,1707177161
194,wildwood,38.5828,-90.6629,11.53,40,0,1.54,US,1707177052
195,hobyo,5.3505,48.5268,25.85,79,86,7.09,SO,1707177162
196,ulsteinvik,62.3432,5.8487,-1.49,93,88,1.79,NO,1707177162
197,menaka,15.9182,2.4022,19.27,14,100,5.29,ML,1707177163
198,mahanoro,-19.9,48.8,23.67,89,100,1.36,MG,1707177163
199,la'ie,21.6477,-157.9253,26.98,67,22,5.36,US,1707177164
200,skive,56.5667,9.0333,3.29,92,100,1.79,DK,1707177164
201,palmer,42.1584,-72.3287,1.78,40,0,3.09,US,1707177164
202,marka,1.7159,44.7717,26.72,79,93,7.35,SO,1707177165
203,ukholovo,53.7929,40.4892,-4.96,94,100,4.36,RU,1707177165
204,east london,-33.0153,27.9116,22.91,86,0,1.94,ZA,1707177166
205,ola,59.5833,151.2833,-20.99,81,100,4.39,RU,1707177166
206,sarmiento,-45.5882,-69.07,24.0,18,5,8.26,AR,1707177167
207,lazaro cardenas,17.9583,-102.2,26.24,69,1,2.68,MX,1707177167
208,al hasakah,36.5024,40.7477,5.54,94,51,2.56,SY,1707177168
209,cabeza del buey,38.7223,-5.2195,8.08,83,98,0.6,ES,1707177168
210,whitehorse,60.7161,-135.0538,-19.57,84,100,2.57,CA,1707177168
211,sao jose da coroa grande,-8.8978,-35.1478,26.56,81,37,2.92,BR,1707177169
212,along,28.1667,94.7667,11.57,98,100,0.32,IN,1707177169
213,naze,28.3667,129.4833,15.51,66,7,5.8,JP,1707177170
214,kenai,60.5544,-151.2583,-5.48,92,100,5.66,US,1707177170
215,phan thiet,10.9333,108.1,23.6,76,51,2.9,VN,1707177171
216,rongelap,11.1635,166.8941,26.53,82,84,9.02,MH,1707177171
217,kingston,17.997,-76.7936,25.12,94,100,7.2,JM,1707176469
218,ginir,7.1333,40.7,15.8,41,33,0.85,ET,1707177172
219,izhmorskiy,56.194,86.6414,-8.41,89,54,5.34,RU,1707177173
220,al jawf,29.5,38.75,8.02,53,0,3.73,SA,1707177173
221,lindsdal,56.7333,16.3,0.48,86,40,0.51,SE,1707177174
222,axim,4.8699,-2.2405,26.04,88,8,1.28,GH,1707177174
223,westport,41.1415,-73.3579,3.23,43,0,6.69,US,1707177073
224,hwangju-up,38.6703,125.7761,-1.03,91,86,1.34,KP,1707177175
225,skovorodino,53.9833,123.9167,-27.5,99,15,1.18,RU,1707177175
226,cambria,35.5641,-121.0808,13.75,96,92,0.89,US,1707177176
227,paracuru,-3.41,-39.0306,28.95,79,28,6.58,BR,1707177176
228,tuba city,36.135,-111.2399,14.65,42,100,1.79,US,1707177177
229,santa cruz,-17.8,-63.1667,31.03,58,75,4.12,BO,1707177001
230,kodiak,57.79,-152.4072,3.73,65,0,2.57,US,1707177178
231,ust'-kulom,61.6864,53.6902,-16.82,97,100,1.51,RU,1707177178
232,kimbe,-5.5502,150.1429,30.58,66,46,1.54,PG,1707177179
233,miquelon,47.0975,-56.3814,2.0,91,100,12.08,PM,1707177179
234,san luis,-33.295,-66.3356,29.38,46,78,1.55,AR,1707177144
235,lodeynoye pole,60.726,33.5531,-9.97,94,97,3.34,RU,1707177180
236,yaren,-0.5472,166.916,28.96,74,78,6.72,NR,1707177180
237,dumai,1.6833,101.45,23.52,97,96,0.14,ID,1707177181
238,idanre,7.1127,5.1159,22.08,25,58,0.72,NG,1707177181
239,abaza,52.655,90.0928,-13.93,90,39,2.18,RU,1707177182
240,freeport,40.6576,-73.5832,4.58,45,0,7.72,US,1707177182
241,warwick,41.7001,-71.4162,2.25,45,0,4.12,US,1707176893
242,yamada,39.4667,141.95,0.78,64,100,2.67,JP,1707177183
243,fort st. john,56.2499,-120.8529,-5.06,63,75,3.09,CA,1707177184
244,happy valley-goose bay,53.3168,-60.3315,-12.83,85,75,4.12,CA,1707177184
245,deschutes river woods,43.9915,-121.3584,9.33,61,100,1.79,US,1707177059
246,motueka,-41.1333,173.0167,26.8,39,60,2.91,NZ,1707177185
247,revda,56.801,59.9303,-5.6,93,87,3.18,RU,1707177186
248,enewetak,11.3474,162.3373,26.67,72,88,6.46,MH,1707177186
249,fort mcmurray,56.7268,-111.381,-10.23,73,100,3.6,CA,1707177187
250,papao,-17.75,-149.55,25.82,83,100,10.53,PF,1707177187
251,awjilah,29.1081,21.2869,12.81,82,1,3.5,LY,1707177188
252,labuan,5.2767,115.2417,26.2,94,20,0.0,MY,1707177188
253,jamestown,42.097,-79.2353,0.01,84,100,4.12,US,1707177189
254,zahedan,29.4963,60.8629,-0.05,47,0,4.12,IR,1707177189
255,alice springs,-23.7,133.8833,26.79,33,40,6.69,AU,1707177190
256,pokhara,28.2333,83.9833,10.38,45,78,2.89,NP,1707177005
257,college,64.8569,-147.8028,-12.89,76,40,0.0,US,1707177191
258,ngala,12.3377,14.1805,22.09,33,68,7.99,NG,1707177191
259,zaragoza,41.6561,-0.8773,11.12,93,100,1.03,ES,1707177191
260,margate,51.3813,1.3862,11.06,78,100,5.36,GB,1707177192
261,severo-yeniseyskiy,60.3725,93.0408,-14.12,97,63,2.24,RU,1707177192
262,fisterra,42.9049,-9.2629,10.01,74,99,0.62,ES,1707177193
263,ushachy,55.1786,28.6035,-3.66,92,77,4.6,BY,1707177193
264,al wafrah,28.6392,47.9306,12.51,45,0,3.84,KW,1707177194
265,joshimath,30.5667,79.5667,-1.71,53,40,3.78,IN,1707177195
266,dharchula,29.85,80.5333,4.39,72,55,3.89,IN,1707177195
267,launceston,-41.45,147.1667,17.97,45,40,5.66,AU,1707177196
268,xinxiang,35.3089,113.8672,-2.43,84,90,0.62,CN,1707177196
269,al qaryatayn,34.2296,37.2407,6.28,90,18,0.64,SY,1707177197
270,baiyin,36.5583,104.2081,-6.83,74,100,1.31,CN,1707177197
271,illizi,26.4833,8.4667,9.89,37,0,4.7,DZ,1707177198
272,porto velho,-8.7619,-63.9039,30.03,70,20,3.09,BR,1707177198
273,sweet home,44.3976,-122.7362,9.42,81,100,0.45,US,1707177199
274,birjand,32.8663,59.2211,-1.74,31,0,3.09,IR,1707177199
275,fortuna,40.5982,-124.1573,9.96,97,75,0.0,US,1707177199
276,mahina,-17.5065,-149.489,25.87,89,75,6.17,PF,1707177200
277,shahr-e babak,30.1165,55.1186,1.03,23,0,2.33,IR,1707177200
278,paulista florida,-21.6,-51.2,26.08,57,100,3.03,BR,1707177201
279,las khorey,11.1595,48.1967,24.28,79,55,0.18,SO,1707177201
280,montepuez,-13.1256,38.9997,21.49,98,100,0.76,MZ,1707177202
281,moose jaw,50.4001,-105.5344,1.14,80,100,0.0,CA,1707177202
282,sibolga,1.7427,98.7792,24.54,88,97,1.56,ID,1707177203
283,alo,7.4178,6.7371,25.87,18,31,1.17,NG,1707177203
284,gao,16.6362,1.637,17.33,16,100,5.69,ML,1707177204
285,amalapuram,16.5833,82.0167,20.83,94,1,0.83,IN,1707177204
286,yelizovo,53.1873,158.3805,-8.92,56,75,2.0,RU,1707177205
287,dawei,14.0833,98.2,18.29,63,3,1.72,MM,1707177205
288,aitape,-3.1374,142.3475,28.98,74,83,1.58,PG,1707177206
289,callaway,30.153,-85.5699,12.03,82,75,7.2,US,1707177044
290,ondangwa,-17.9167,15.95,25.0,69,95,2.06,NA,1707177207
291,chesma,53.8111,60.6533,-7.83,97,66,3.6,RU,1707177207
292,remire-montjoly,4.9167,-52.2667,27.02,89,75,1.54,GF,1707177207
293,iron river,46.0927,-88.6423,3.42,88,77,1.54,US,1707177208
294,nogliki,51.8333,143.1667,-21.48,99,51,3.58,RU,1707177208
295,bamyan,34.75,67.25,-20.72,90,8,2.22,AF,1707177209
296,zaozersk,69.4005,32.4476,-18.49,99,95,2.06,RU,1707177209
297,isafjordur,66.0755,-23.124,-8.39,77,100,5.12,IS,1707177210
298,edd,13.9297,41.6925,24.71,86,89,3.56,ER,1707177210
299,petropavlovsk-kamchatsky,53.0452,158.6483,-9.67,80,75,3.13,RU,1707177211
300,bac lieu,9.285,105.7244,24.93,88,14,2.71,VN,1707177211
301,hami,42.8,93.45,-5.35,58,5,2.15,CN,1707177212
302,marion,39.7684,-86.1555,8.11,58,20,4.12,US,1707177023
303,susuman,62.7833,148.1667,-28.9,89,100,1.34,RU,1707177212
304,hatillo,18.4863,-66.8254,28.21,79,100,3.93,PR,1707177213
305,bassar,9.25,0.7833,25.25,16,79,3.53,TG,1707177213
306,mejit,10.2753,170.8646,26.83,81,69,8.07,MH,1707177214
307,castillos,-34.1667,-53.8333,20.52,71,66,5.23,UY,1707177214
308,kinablangan,7.6947,126.5503,25.57,81,100,1.64,PH,1707177215
309,thai nguyen,21.5928,105.8442,20.88,94,100,1.25,VN,1707177215
310,hasaki,35.7333,140.8333,4.05,79,100,10.27,JP,1707177216
311,sao vicente,-23.9631,-46.3919,28.48,26,37,0.45,BR,1707177216
312,kristiansund,63.1115,7.732,-2.64,93,40,1.03,NO,1707177216
313,sao felix do xingu,-6.6447,-51.995,22.93,97,100,0.37,BR,1707177217
314,behbahan,30.5959,50.2417,10.31,50,22,2.95,IR,1707177217
315,barguzin,53.6167,109.6167,-18.02,88,85,1.05,RU,1707177218
316,nizhneudinsk,54.9076,99.0276,-11.07,91,97,1.82,RU,1707177026
317,tutoia,-2.7619,-42.2744,27.99,81,60,6.8,BR,1707177219
318,howrah,22.5892,88.3103,22.0,88,40,0.0,IN,1707177219
319,batesville,35.7698,-91.641,15.23,33,0,2.57,US,1707177220
320,st. john's,47.5649,-52.7093,1.55,97,100,8.49,CA,1707177076
321,harstad,68.799,16.5293,-2.14,93,79,2.68,NO,1707177220
322,hutchinson,38.0608,-97.9298,8.07,80,0,2.06,US,1707177221
323,waingapu,-9.6567,120.2641,27.45,76,57,2.66,ID,1707177221
324,areia branca,-4.9561,-37.1369,28.21,78,40,9.85,BR,1707177222
325,dwarka,22.2394,68.9678,22.31,76,14,3.63,IN,1707177223
326,mar del plata,-38.0023,-57.5575,21.64,83,75,11.18,AR,1707177183
327,narvik,68.4384,17.4272,-4.33,78,89,2.98,NO,1707177224
328,tromso,69.6496,18.957,-6.99,68,20,1.54,NO,1707177224
329,barinitas,8.7622,-70.4111,23.88,80,79,1.44,VE,1707177224
330,tucuma,-0.1833,-50.05,25.51,89,39,3.26,BR,1707177225
331,nuuk,64.1835,-51.7216,-12.66,78,75,3.6,GL,1707176930
332,feijo,-8.1642,-70.3536,23.44,98,38,1.38,BR,1707177226
333,arenapolis,-14.4503,-56.8461,23.44,90,97,1.93,BR,1707177226
334,cassilandia,-19.1133,-51.7342,22.89,78,100,1.6,BR,1707177227
335,lagos,6.5833,3.75,25.18,58,52,1.37,NG,1707177158
336,kanggye,40.9695,126.5852,-4.99,93,100,0.85,KP,1707177228
337,jianguang,28.1938,115.7836,2.35,97,100,2.4,CN,1707177228
338,spearfish,44.4908,-103.8594,13.49,35,0,1.54,US,1707177228
339,gornopravdinsk,60.05,69.9,0.34,98,100,4.54,RU,1707177229
340,chinde,26.8418,88.0763,5.63,74,48,1.88,NP,1707177229
341,kismayo,-0.3582,42.5454,26.58,85,61,5.22,SO,1707177230
342,kurumkan,54.3,110.3,-19.37,88,94,1.79,RU,1707177230
343,manggar,-2.8833,108.2667,25.93,89,100,2.8,ID,1707177231
344,montreux,46.433,6.9114,8.97,71,37,1.9,CH,1707177231
345,zahir pir,28.8124,70.524,12.1,54,7,3.23,PK,1707177231
346,saint-joseph,-21.3667,55.6167,21.21,74,77,3.01,RE,1707177232
347,badiyah,22.45,58.8,17.93,76,21,0.22,OM,1707177232
348,kilindoni,-7.9139,39.6668,28.12,77,52,5.92,TZ,1707177233
349,telenesti,47.4997,28.3656,6.03,87,100,3.62,MD,1707177233
350,loa janan,-0.583,117.095,24.32,92,100,1.03,ID,1707177234
351,al kut,32.5147,45.819,13.28,39,71,4.01,IQ,1707177234
352,axtla de terrazas,21.4667,-98.85,22.11,49,0,2.16,MX,1707177235
353,catumbela,-12.4314,13.5472,26.74,83,100,2.38,AO,1707177235
354,waynesboro,38.0685,-78.8895,8.66,59,0,0.0,US,1707177187
355,queenstown,-31.8976,26.8753,17.36,85,3,0.37,ZA,1707177236
356,kununurra,-15.7667,128.7333,31.99,62,2,0.51,AU,1707177236
357,rundu,-17.9333,19.7667,21.95,67,93,2.44,NA,1707177237
358,port hueneme,34.1478,-119.1951,14.42,92,100,7.2,US,1707177238
359,hovd,48.0056,91.6419,-20.63,90,27,0.6,MN,1707177238
360,san ramon de la nueva oran,-23.1322,-64.326,31.35,48,96,2.15,AR,1707177238
361,xiaoshi,41.2971,124.1209,-11.69,95,100,1.16,CN,1707177239
362,mainvilliers,48.45,1.4561,6.86,95,100,2.24,FR,1707177240
363,alegria,9.4669,125.5772,25.9,78,95,1.27,PH,1707177240
364,hilo,19.7297,-155.09,24.49,85,100,1.54,US,1707177241
365,howard springs,-12.497,131.047,31.6,92,51,3.69,AU,1707177242
366,argo,37.6333,22.7333,11.57,55,0,2.59,GR,1707177242
367,lawar khas,29.1167,77.7667,9.4,62,0,3.02,IN,1707177243
368,al ghayzah,16.2079,52.176,22.56,66,3,2.47,YE,1707177243
369,itai,-23.4178,-49.0906,26.28,45,98,2.28,BR,1707177243
370,timimoun,29.2639,0.231,12.21,47,0,5.14,DZ,1707177244
371,pacific grove,36.6177,-121.9166,14.12,77,100,2.57,US,1707177244
372,pangody,65.85,74.4859,-23.53,98,61,4.81,RU,1707177245
373,rio grande,-32.035,-52.0986,25.06,81,79,6.22,BR,1707177192
374,broken hill,-31.95,141.4333,20.21,37,1,10.28,AU,1707177056
375,maues,-3.3836,-57.7186,25.82,80,79,1.49,BR,1707177246
376,shyroke,47.6917,33.2571,3.26,63,38,8.2,UA,1707177247
377,tindouf,27.6711,-8.1474,12.25,40,0,2.57,DZ,1707177247
378,guarapari,-20.6667,-40.4975,27.16,91,100,3.54,BR,1707177247
379,anzio,41.4853,12.6179,13.7,80,35,1.81,IT,1707177248
380,yicheng,31.3705,119.8703,0.23,84,100,3.39,CN,1707177248
381,muravlenko,63.7898,74.523,-16.37,97,88,7.23,RU,1707177249
382,abu zabad,12.35,29.25,17.7,16,26,7.59,SD,1707177250
383,likiep,9.8251,169.3107,26.87,82,92,8.22,MH,1707177250
384,al qubbah,32.7616,22.2424,9.14,90,5,6.0,LY,1707177251
385,pinheiro,-2.5214,-45.0825,24.21,93,80,1.04,BR,1707177252
386,san angelo,31.4638,-100.437,16.73,51,7,0.89,US,1707177252
387,brookings,44.3114,-96.7984,4.54,82,8,0.89,US,1707177253
388,vizinga,61.0749,50.1031,-17.85,98,100,1.61,RU,1707177253
389,iquique,-20.2208,-70.1431,27.02,79,2,0.35,CL,1707177255
390,iskateley,67.6803,53.1512,-18.88,97,100,1.79,RU,1707177255
391,merizo village,13.2658,144.6691,28.31,76,100,8.44,GU,1707177256
392,carnarvon,-24.8667,113.6333,28.85,32,10,10.78,AU,1707177256
393,saint-jean-de-monts,46.7833,-2.0667,10.91,82,100,3.69,FR,1707177257
394,yen vinh,18.6667,105.6667,22.42,92,80,0.53,VN,1707177257
395,kidal,18.4411,1.4078,16.35,17,90,5.82,ML,1707177258
396,namdrik,5.5994,168.1028,27.99,77,100,6.84,MH,1707177258
397,pawni,20.7833,79.6333,20.98,47,0,2.25,IN,1707177259
398,kapit,2.0167,112.9333,24.15,92,100,0.33,MY,1707177259
399,toliara,-23.35,43.6667,24.7,87,7,2.91,MG,1707177260
400,princeville,45.7668,-61.2985,1.45,95,100,2.06,CA,1707177260
401,shiprock,36.7855,-108.687,14.19,42,100,3.7,US,1707177261
402,big bend,-26.8167,31.9333,25.05,94,57,0.0,SZ,1707177261
403,panaba,21.2833,-88.2667,20.32,59,7,10.47,MX,1707177261
404,taunggyi,20.7833,97.0333,9.23,56,0,0.59,MM,1707177262
405,ancud,-41.8697,-73.8203,15.04,90,90,3.13,CL,1707177262
406,lata,40.1629,-8.3327,11.62,87,100,0.36,PT,1707177263
407,al faw,29.9776,48.4741,10.0,43,1,2.98,IQ,1707177263
408,arraial do cabo,-22.9661,-42.0278,25.98,83,40,3.09,BR,1707177264
409,ikongo,-21.8833,47.4333,20.99,99,99,1.03,MG,1707177264
410,stephenville,32.2207,-98.2023,15.14,55,0,4.12,US,1707177265
411,mil'kovo,55.6078,37.7956,-3.73,83,99,3.35,RU,1707177265
412,puerto baquerizo moreno,-0.9,-89.6,25.55,79,41,4.85,EC,1707177266
413,gandarbal,34.2333,74.7833,-3.74,77,37,2.28,IN,1707177266
414,ak-dovurak,51.1833,90.6,-26.61,90,41,1.34,RU,1707177267
415,annaba,36.9,7.7667,8.98,93,0,3.09,DZ,1707177268
416,flying fish cove,-10.4217,105.6791,23.82,100,95,0.0,CX,1707177268
417,sinop,41.7711,34.8709,10.24,87,86,4.82,TR,1707177268
418,cooma,-36.2333,149.1333,12.69,93,100,3.04,AU,1707177269
419,north liberty,41.7492,-91.598,9.15,55,0,0.0,US,1707177269
420,lastoursville,-0.8143,12.7287,24.08,88,97,0.68,GA,1707177270
421,boa esperanca,-21.09,-45.5658,18.86,84,100,0.27,BR,1707177270
422,dzhetygara,52.1908,61.2006,-0.4,97,97,7.76,KZ,1707177271
423,belyy yar,53.6039,91.3903,-12.06,85,86,2.0,RU,1707177271
424,puerto rico,-26.796,-55.024,26.51,67,72,0.83,AR,1707177272
425,taroa,8.7058,171.2275,27.27,79,100,7.54,MH,1707177272
426,kayangel,8.0823,134.7173,27.64,84,100,9.58,PW,1707177273
427,chonchi,-42.6128,-73.8092,20.56,74,62,1.67,CL,1707177273
428,lamu,-2.2717,40.902,26.41,85,76,4.13,KE,1707177273
429,pandan,14.0453,124.1694,26.02,84,83,6.33,PH,1707177274
430,marquelia,16.5833,-98.8167,26.59,68,0,2.21,MX,1707177274
431,az zuwaytinah,30.9522,20.1202,15.98,74,26,3.99,LY,1707177275
432,waddan,29.1614,16.139,10.61,63,0,0.66,LY,1707177275
433,klaksvik,62.2266,-6.589,0.51,68,100,15.4,FO,1707177276
434,farasan,16.7022,42.1183,25.51,77,61,5.82,SA,1707177276
435,ribadesella,43.4614,-5.0596,9.41,84,100,0.75,ES,1707177277
436,gunnedah,-30.9833,150.25,30.82,41,94,3.25,AU,1707177277
437,itaituba,-4.2761,-55.9836,26.31,80,74,0.93,BR,1707177278
438,glace bay,46.1969,-59.957,0.99,98,100,7.2,CA,1707177278
439,touros,-5.1989,-35.4608,27.58,77,26,5.38,BR,1707177278
440,juliaca,-15.5,-70.1333,11.99,54,75,4.12,PE,1707177279
441,vila franca do campo,37.7167,-25.4333,18.27,99,95,6.09,PT,1707177279
442,biloli,18.7667,77.7333,22.83,47,0,1.08,IN,1707177280
443,la palma,33.8464,-118.0467,14.47,96,100,1.54,US,1707177280
444,sao joao de pirabas,-0.7747,-47.1772,26.03,87,41,3.51,BR,1707177281
445,rovinari,44.9167,23.1833,9.64,62,20,4.44,RO,1707177281
446,utrik,11.2278,169.8474,26.42,83,29,8.81,MH,1707177282
447,colonia,50.9333,6.95,9.98,76,100,4.63,DE,1707177168
448,choibalsan,48.0667,114.5,-23.26,93,25,3.17,MN,1707177282
449,vanadzor,40.8046,44.4939,-4.79,88,65,4.89,AM,1707177283
450,koundara,12.4833,-13.3,27.41,15,0,0.67,GN,1707177283
451,lomo de arico,28.1667,-16.4833,18.09,38,0,2.57,ES,1707177284
452,rockdale,33.6501,-84.0166,13.28,74,40,0.0,US,1707177285
453,sumenep,-7.0167,113.8667,26.65,83,98,1.49,ID,1707177285
454,al bawiti,28.3492,28.8659,11.04,58,0,2.7,EG,1707177286
455,chabahar,25.2919,60.643,21.15,46,92,7.3,IR,1707177286
456,new norfolk,-42.7826,147.0587,17.73,36,52,3.1,AU,1707177287
457,parabel',58.6978,81.4825,-3.94,93,100,5.81,RU,1707177287
458,nagqu,31.5,92.0,-9.75,19,82,5.94,CN,1707177288
459,canatlan,24.5167,-104.7833,20.04,14,0,2.86,MX,1707177288
460,pisco,-13.7,-76.2167,26.03,78,0,8.75,PE,1707177289
461,mehdia daira de meghila,35.4306,1.7571,7.47,36,72,4.66,DZ,1707177289
462,shihezi,44.3,86.0333,-15.95,95,100,1.97,CN,1707177290
463,zheleznogorsk-ilimskiy,56.5768,104.1217,-8.13,87,100,3.58,RU,1707177291
464,lolodorf,3.2333,10.7333,21.34,99,21,0.69,CM,1707177291
465,isla del bosque,22.7333,-105.85,24.34,52,1,4.15,MX,1707177291
466,eyl,7.9803,49.8164,23.93,76,57,6.13,SO,1707177292
467,acajutla,13.5928,-89.8275,27.2,66,13,3.99,SV,1707177292
468,san pedro carcha,15.4833,-90.2667,17.34,82,75,2.06,GT,1707177293
469,yel'nya,54.5786,33.1837,-10.76,99,75,3.38,RU,1707177293
470,misratah,32.3754,15.0925,15.26,56,0,4.4,LY,1707177294
471,nhamunda,-2.1861,-56.7131,27.7,68,54,1.7,BR,1707177294
472,takayama,36.1333,137.25,-0.64,93,98,1.73,JP,1707177295
473,at taj,24.2049,23.2857,9.6,54,0,3.77,LY,1707177295
474,mitu,1.1983,-70.1733,23.52,99,100,0.16,CO,1707177295
475,kathu,7.9178,98.3332,24.9,78,58,2.15,TH,1707177296
476,taunusstein,50.15,8.15,6.82,82,100,4.12,DE,1707177296
477,frontera,26.9333,-101.45,21.29,23,0,2.68,MX,1707177297
478,olds,51.7834,-114.102,-3.53,79,97,3.09,CA,1707177298
479,el quebrachal,-25.2833,-64.0667,28.44,53,89,2.53,AR,1707177298
480,manthani,18.65,79.6667,22.18,79,0,2.5,IN,1707177298
481,chimbarongo,-34.7,-71.05,29.49,29,42,2.16,CL,1707177299
482,kasongo-lunda,-6.4667,16.8167,21.71,98,96,0.43,CD,1707177300
483,tofol,5.3248,163.0078,28.88,74,75,7.2,FM,1707177301
484,vryheid,-27.7695,30.7917,15.46,96,38,1.28,ZA,1707177301
485,moires,35.0532,24.8744,12.9,67,2,3.44,GR,1707177302
486,north bay,46.3168,-79.4663,-0.99,69,0,1.54,CA,1707177270
487,coquimbo,-29.9533,-71.3436,19.85,82,40,4.63,CL,1707177302
488,olinda,-8.0089,-34.8553,28.85,74,40,3.6,BR,1707177303
489,mermoz boabab,14.7065,-17.4758,24.31,73,0,4.12,SN,1707177303
490,nadi,-17.8,177.4167,30.0,74,75,4.63,FJ,1707177304
491,bopolu,7.0667,-10.4875,23.14,96,9,0.43,LR,1707177304
492,minab,27.1467,57.0801,17.18,47,47,1.47,IR,1707177305
493,richards bay,-28.783,32.0377,23.26,88,94,1.62,ZA,1707177305
494,karratha,-20.7377,116.8463,28.98,58,14,3.28,AU,1707177306
495,cannonvale,-20.2833,148.7,29.66,63,17,1.52,AU,1707177306
496,banda aceh,5.5577,95.3222,25.23,88,99,4.24,ID,1707177307
497,trairi,-3.2778,-39.2689,27.54,79,20,5.8,BR,1707177182
498,kaa-khem,51.6833,94.7333,-28.11,94,26,1.2,RU,1707177308
499,thunder bay,48.4001,-89.3168,1.99,87,75,3.09,CA,1707177110
500,gadzhiyevo,69.2551,33.3362,-19.39,100,99,3.21,RU,1707177309
501,north bend,43.4065,-124.2243,10.13,93,100,3.6,US,1707177309
502,sinabang,2.4803,96.3801,26.82,81,100,0.8,ID,1707177310
503,vorkuta,67.5,64.0,-26.07,99,42,2.01,RU,1707177310
504,aldinga beach,-35.2793,138.4604,21.36,47,15,4.83,AU,1707177311
505,crane,31.3974,-102.3501,14.62,39,13,0.65,US,1707177311
506,yanbu,24.0891,38.0637,16.02,63,0,1.54,SA,1707177312
507,tanjung pandan,-2.75,107.65,26.82,82,100,3.66,ID,1707177312
508,dhidhdhoo,6.8833,73.1,27.89,76,34,4.69,MV,1707177313
509,chegutu,-18.1302,30.1407,19.05,75,21,2.45,ZW,1707177314
510,tosontsengel,48.7567,98.2839,-27.85,97,100,0.16,MN,1707177314
511,kiama,-34.6833,150.8667,22.99,89,100,2.24,AU,1707177315
512,suomussalmi,64.8869,28.9078,-15.08,95,98,3.32,FI,1707177316
513,gewane,10.1664,40.6453,25.29,54,37,2.64,ET,1707177316
514,illapel,-31.6308,-71.1653,23.52,61,0,2.18,CL,1707177317
515,kupang,-10.1667,123.5833,25.32,100,75,1.03,ID,1707177317
516,aykhal,66.0,111.5,-20.97,99,100,2.33,RU,1707177318
517,bay roberts,47.5999,-53.2648,1.75,98,100,5.36,CA,1707177318
518,pakuranga,-36.8833,174.9167,25.7,67,1,4.12,NZ,1707177319
519,santa ana maya,20.0,-101.0167,21.8,13,1,2.1,MX,1707177319
520,hammerfest,70.6634,23.6821,-9.75,79,0,1.54,NO,1707177320
521,garachico,28.7781,-17.7646,19.06,24,0,4.63,ES,1707177320
522,nadym,65.5333,72.5167,-21.87,98,88,5.46,RU,1707177321
523,taltal,-25.4,-70.4833,22.25,81,0,1.84,CL,1707177321
524,chibougamau,49.9168,-74.3659,-11.21,73,0,2.06,CA,1707177321
525,carora,10.1755,-70.0827,26.42,74,59,1.52,VE,1707177322
526,mumford,5.2618,-0.759,25.89,86,12,2.05,GH,1707177322
527,namtsy,62.7161,129.6658,-43.5,100,71,0.13,RU,1707177323
528,aasiaat,68.7098,-52.8699,-29.67,87,22,3.76,GL,1707177324
529,san pedro,14.35,121.0167,26.29,79,20,3.58,PH,1707177324
530,kapa'a,22.0752,-159.319,25.99,63,75,8.75,US,1707177325
531,oriximina,-1.7656,-55.8661,28.8,64,97,0.73,BR,1707177325
532,maddagiri,13.6606,77.2092,18.18,78,11,1.43,IN,1707177326
533,prainha,-1.8,-53.48,28.59,55,51,2.09,BR,1707177326
534,newman,37.3138,-121.0208,14.52,73,99,0.45,US,1707177327
535,kolonia,50.9333,6.95,9.98,76,100,4.63,DE,1707177168
536,huaraz,-9.5333,-77.5333,14.07,88,89,1.89,PE,1707177327
537,saint-paul,-21.0096,55.2707,22.06,75,80,0.52,RE,1707177293
538,mount pearl,47.5166,-52.7813,1.09,98,100,7.2,CA,1707177328
539,ewo,-0.8725,14.8206,24.31,80,98,3.6,CG,1707177329
540,rocky mountain house,52.3668,-114.9188,-3.94,80,100,2.06,CA,1707177329
541,ciudad guadalupe victoria,24.4497,-104.1225,19.47,13,0,2.91,MX,1707177330
542,vilyuysk,63.7553,121.6247,-38.33,100,83,1.34,RU,1707177330
543,nakhon thai,17.1006,100.8374,21.48,38,0,0.88,TH,1707177331
544,bonthe,7.5264,-12.505,25.84,87,0,1.94,SL,1707177331
545,bani walid,31.7566,13.9942,13.22,41,0,3.25,LY,1707177332
546,cambridge,43.3601,-80.3127,0.63,82,0,1.03,CA,1707177332
547,anar darah,32.7587,61.654,6.91,27,0,2.18,AF,1707177332
548,palangkaraya,-2.2,113.8333,25.48,90,98,1.03,ID,1707177333
549,betio village,1.358,172.9211,31.02,79,95,5.7,KI,1707177333
550,al bayda',32.7627,21.7551,9.89,91,84,5.54,LY,1707177334
551,port saint john's,-31.6229,29.5448,22.97,92,0,2.95,ZA,1707177334
552,bowen,-20.0167,148.2333,29.91,62,20,1.67,AU,1707177335
553,lydenburg,-25.0978,30.4597,15.55,96,15,0.51,ZA,1707177335
554,baise city,23.8997,106.6133,15.19,99,100,1.33,CN,1707177336
555,villa gesell,-37.2639,-56.973,22.25,77,88,9.67,AR,1707177336
556,tazacorte,28.629,-17.9293,20.54,24,0,4.63,ES,1707177337
557,claiborne,32.516,-92.1918,16.84,39,0,8.23,US,1707177338
558,lafiagi,8.8667,5.4167,25.57,17,33,1.9,NG,1707177338
559,dniprorudne,47.3817,34.9765,2.58,71,61,10.72,UA,1707177338
560,houghton,47.1219,-88.569,4.71,84,100,0.0,US,1707177243
561,carutapera,-1.195,-46.02,25.61,90,33,2.91,BR,1707177339
562,nanning,22.8167,108.3167,9.25,91,100,2.62,CN,1707177340
563,beinamar,8.6698,15.3813,22.8,18,15,2.56,TD,1707177340
564,tangalle,6.024,80.7911,23.28,87,94,4.77,LK,1707177341
565,sechelt,49.4664,-123.7694,8.97,66,100,2.36,CA,1707177341
566,mount gambier,-37.8333,140.7667,18.76,42,3,3.55,AU,1707177342
567,aban,56.67,96.06,-14.66,95,92,1.79,RU,1707177342
568,raduzhny,62.0961,77.475,-9.38,94,100,5.9,RU,1707177343
569,pangai,-19.8,-174.35,27.14,75,72,8.07,TO,1707177343
570,xinglongshan,43.9561,125.4661,-21.14,77,100,1.0,CN,1707177343
571,esil,51.9556,66.4042,-1.17,92,100,8.38,KZ,1707177344
572,menongue,-14.6585,17.691,17.62,96,93,1.78,AO,1707177344
573,valguarnera caropepe,37.4955,14.3888,9.89,49,0,2.19,IT,1707177345
574,guatire,10.4762,-66.5427,26.44,67,92,0.98,VE,1707177345
575,bontang,0.1333,117.5,25.68,82,98,1.17,ID,1707177346
576,arteche,12.2645,125.4048,26.16,84,100,4.76,PH,1707177346
577,kukawa,12.9234,13.5606,21.2,35,54,8.38,NG,1707177347
578,coyhaique,-45.5752,-72.0662,17.97,42,20,1.54,CL,1707177347
579,inari,68.906,27.0288,-21.89,100,100,1.27,FI,1707177348
580,concepcion,-36.827,-73.0498,18.89,82,40,5.14,CL,1707177348
581,pauini,-7.7136,-66.9764,23.54,97,91,0.33,BR,1707177348
